SALE TYPE,SOLD DATE,PROPERTY TYPE,ADDRESS,CITY,STATE OR PROVINCE,ZIP OR POSTAL CODE,PRICE,BEDS,BATHS,LOCATION,SQUARE FEET,LOT SIZE,YEAR BUILT,DAYS ON MARKET,$/SQUARE FEET,HOA/MONTH,STATUS,NEXT OPEN HOUSE START TIME,NEXT OPEN HOUSE END TIME,URL (SEE http://www.redfin.com/buy-a-home/comparative-market-analysis FOR INFO ON PRICING),SOURCE,MLS#,FAVORITE,INTERESTED,LATITUDE,LONGITUDE
MLS Listing,,Single Family Residential,2810 Dogwood Ln,Camano Island,WA,98282,455000,3,1.75,Idlewood,1966,25441,1991,1,231,,Active,,,http://www.redfin.com/WA/Camano/2810-Dogwood-Ln-98282/home/16695307,NWMLS,1662325,N,Y,48.10869,-122.4244439
MLS Listing,,Single Family Residential,362 SE Neil St,Oak Harbor,WA,98277,339000,4,1.5,City Of Oak Harbor,1533,7257,1948,1,221,,Active,,,http://www.redfin.com/WA/Oak-Harbor/362-SE-Neil-St-98277/home/16698386,NWMLS,1669289,N,Y,48.2958269,-122.6405017
MLS Listing,,Single Family Residential,136 Sonshine Ln,Camano Island,WA,98282,525000,3,2,Country Club,1756,43662,1995,1,299,,Active,,,http://www.redfin.com/WA/Camano/136-Sonshine-Ln-98282/home/16706289,NWMLS,1659948,N,Y,48.149806,-122.4761257
MLS Listing,,Single Family Residential,486 SE Ireland St,Oak Harbor,WA,98277,327000,3,1,City Of Oak Harbor,1221,9164,1984,1,268,,Active,,,http://www.redfin.com/WA/Oak-Harbor/486-SE-Ireland-St-98277/home/16686974,NWMLS,1666550,N,Y,48.2942328,-122.6463668
MLS Listing,,Vacant Land,Alpha Ln,Freeland,WA,98249,299000,0,,Freeland,,77785,,1,,,Active,,,http://www.redfin.com/WA/FREELAND/ALPHA-LN-98249/home/22893605,NWMLS,1670958,N,Y,47.998675,-122.540852
MLS Listing,,Single Family Residential,781 Roberts Bluff Rd,Coupeville,WA,98239,530000,2,1,Coupeville,622,9238,1950,1,852,46,Active,,,http://www.redfin.com/WA/Coupeville/781-Roberts-Bluff-Rd-98239/home/16686966,NWMLS,1667150,N,Y,48.182021,-122.586231
MLS Listing,,Single Family Residential,1024 NW Anchor Dr,Oak Harbor,WA,98277,330000,3,2,City Of Oak Harbor,1092,8200,1968,1,302,,Active,October-1-2020 04:30 PM,October-1-2020 06:30 PM,http://www.redfin.com/WA/Oak-Harbor/1024-NW-Anchor-Dr-98277/home/16688441,NWMLS,1670629,N,Y,48.3067369,-122.6588256
MLS Listing,,Single Family Residential,1443 Martha Way,Oak Harbor,WA,98277,525000,3,2,Oak Harbor,2551,13516,1940,1,206,,Active,,,http://www.redfin.com/WA/Oak-Harbor/1443-Martha-Way-98277/home/16693453,NWMLS,1669202,N,Y,48.262488,-122.748352
MLS Listing,,Single Family Residential,4617 Tanner View Dr,Clinton,WA,98236,1115000,3,3.5,Clinton,4262,14739,1999,1,262,26,Active,,,http://www.redfin.com/WA/Clinton/4617-Tanner-View-Dr-98236/home/16687867,NWMLS,1669480,N,Y,47.982832,-122.3647059
MLS Listing,,Vacant Land,Kims Way,Oak Harbor,WA,98277,249900,0,,North Whidbey,,441263,,1,,,Active,,,http://www.redfin.com/WA/Oak-Harbor/Kims-Way-98277/home/173319706,NWMLS,1670526,N,Y,48.317255,-122.678746
MLS Listing,,Vacant Land,1303 Pilchuck Dr,Camano Island,WA,98282,60000,0,,Camano Vista,,13471,,1,,,Active,,,http://www.redfin.com/WA/Camano/1303-Pilchuck-Dr-98282/home/21656093,NWMLS,1666856,N,Y,48.1008749,-122.4063913
MLS Listing,,Single Family Residential,1654 Lynne Dr,Freeland,WA,98249,445000,2,2.5,Freeland,1420,10000,1991,1,313,,Active,,,http://www.redfin.com/WA/Freeland/1654-Lynne-Dr-98249/home/16683071,NWMLS,1670564,N,Y,48.0146766,-122.5254173
MLS Listing,,Single Family Residential,670 NW Mizzen Dr,Oak Harbor,WA,98277,365000,3,1.75,City Of Oak Harbor,1419,8751,1989,1,257,,Active,October-3-2020 12:00 PM,October-3-2020 02:00 PM,http://www.redfin.com/WA/Oak-Harbor/670-NW-Mizzen-Dr-98277/home/16690323,NWMLS,1669481,N,Y,48.3035464,-122.6730786
MLS Listing,,Single Family Residential,1727 SW Downfield Way,Oak Harbor,WA,98277,473900,3,2.5,City Of Oak Harbor,2295,6305,2012,2,206,40,Active,,,http://www.redfin.com/WA/Oak-Harbor/1727-SW-Downfield-Way-98277/home/45463379,NWMLS,1669846,N,Y,48.2845098,-122.6949494
MLS Listing,,Vacant Land,Harbor Ave,Freeland,WA,98249,165000,0,,Freeland,,19166,,2,,,Active,,,http://www.redfin.com/WA/Freeland/S-Harbor-Ave-98249/home/16715325,NWMLS,1668810,N,Y,48.01085,-122.523708
MLS Listing,,Vacant Land,NW Front St,Coupeville,WA,98239,240000,0,,Coupeville,,3600,,2,,,Active,,,http://www.redfin.com/WA/Coupeville/Front-St-NE-98239/home/109465923,NWMLS,1669999,N,Y,48.221084,-122.685898
MLS Listing,,Mobile/Manufactured Home,190 Skagit Ave,Camano Island,WA,98282,424800,3,2,North End,1620,15397,1996,5,262,,Active,,,http://www.redfin.com/WA/Camano/190-Skagit-Ave-98282/home/16683604,NWMLS,1667242,N,Y,48.2542869,-122.4719905
MLS Listing,,Single Family Residential,1575 Polnell Rd,Oak Harbor,WA,98277,685000,3,2.25,Oak Harbor,2206,47916,1976,5,311,,Active,,,http://www.redfin.com/WA/Oak-Harbor/1575-Polnell-Rd-98277/home/16710240,NWMLS,1667471,N,Y,48.2848855,-122.5303505
MLS Listing,,Vacant Land,51 E Alder View Ln,Greenbank,WA,98253,99500,0,,Greenbank,,55474,,5,,,Active,,,http://www.redfin.com/WA/Greenbank/51-Alder-St-98253/home/173071541,NWMLS,1669277,N,Y,48.076694,-122.587452
MLS Listing,,Vacant Land,1387 Dallman Rd,Camano Island,WA,98282,599000,0,,Mabana,,457511,,5,,,Active,,,http://www.redfin.com/WA/Camano/1387-E-Dallman-Rd-98282/home/16704931,NWMLS,1668607,N,Y,48.096403,-122.4109509
MLS Listing,,Single Family Residential,4623 S Pintail Rd,Langley,WA,98260,749900,4,2.75,Goss Lake,2265,79188,1950,5,331,,Active,,,http://www.redfin.com/WA/Langley/4623-S-Pintail-Rd-98260/home/16698280,NWMLS,1663457,N,Y,48.043269,-122.480665
MLS Listing,,Single Family Residential,1238 View St,Camano Island,WA,98282,464950,2,2.75,Country Club,2732,10174,2007,5,170,7,Active,,,http://www.redfin.com/WA/Camano/1238-S-View-St-98282/home/16843683,NWMLS,1664222,N,Y,48.1657768,-122.4798571
MLS Listing,,Single Family Residential,1954 Shore Ave,Freeland,WA,98249,2490000,3,3,Useless Bay,2610,10850,2005,5,954,,Active,,,http://www.redfin.com/WA/Freeland/1954-Shore-Ave-98249/home/16703094,NWMLS,1665799,N,Y,47.9845398,-122.5098457
MLS Listing,,Single Family Residential,1996 Cranberry Ln,Camano Island,WA,98282,1225000,3,4.25,State Park,4900,207781,2003,5,250,,Active,,,http://www.redfin.com/WA/Camano/1996-S-150th-W-98282/home/16710087,NWMLS,1663829,N,Y,48.139348,-122.493165
MLS Listing,,Single Family Residential,1517 SE Camano Dr,Camano Island,WA,98282,395000,2,1.5,Country Club,1318,8398,1991,5,300,15,Active,,,http://www.redfin.com/WA/Camano/1517-E-Camano-Dr-98282/home/16702913,NWMLS,1660793,N,Y,48.155274,-122.465955
MLS Listing,,Mobile/Manufactured Home,1643 Aspen Dr,Camano Island,WA,98282,317900,3,2,Lost Lake,1200,13302,1986,6,265,45,Active,,,http://www.redfin.com/WA/Camano/1643-Aspen-Dr-98282/home/16694272,NWMLS,1666241,N,Y,48.1512737,-122.4845326
MLS Listing,,Vacant Land,Oakes Rd,Coupeville,WA,98239,180000,0,,Coupeville,,246985,,6,,,Active,,,http://www.redfin.com/WA/Unknown/Hill-Rd-98239/home/16682163,NWMLS,1667824,N,Y,48.183987,-122.605599
MLS Listing,,Single Family Residential,6860 Twin Cedars Dr,Clinton,WA,98236,795000,3,2.75,Clinton,2595,348103,1997,6,306,,Active,,,http://www.redfin.com/WA/Clinton/6860-S-Twin-Cedars-Dr-98236/home/16706864,NWMLS,1662468,N,Y,47.96108,-122.377852
MLS Listing,,Single Family Residential,167 Maple St,Camano Island,WA,98282,330000,1,1.75,Madrona,884,3999,1903,6,373,,Active,,,http://www.redfin.com/WA/Camano/167-N-Maple-St-98282/home/16694049,NWMLS,1666696,N,Y,48.2172614,-122.5342128
MLS Listing,,Vacant Land,Lot 3 Twin Oaks Ln,Freeland,WA,98249,210000,0,,Freeland,,112291,,7,,,Active,,,http://www.redfin.com/WA/Freeland/Lot-3-Twin-Oaks-Ln-98249/home/173273023,NWMLS,1667480,N,Y,48.01814,-122.513295
MLS Listing,,Single Family Residential,6582 Humphrey Rd,Clinton,WA,98236,519000,2,1.75,Clinton,1750,17259,1976,7,297,,Active,,,http://www.redfin.com/WA/Clinton/6582-Humphrey-Rd-98236/home/16699829,NWMLS,1664089,N,Y,47.9718251,-122.3561835
MLS Listing,,Single Family Residential,3060 SW Scenic Heights St,Oak Harbor,WA,98277,849900,3,1.5,Oak Harbor,2270,38698,1918,7,374,,Active,,,http://www.redfin.com/WA/Oak-Harbor/3060-SW-Scenic-Heights-St-98277/home/16711891,NWMLS,1667205,N,Y,48.2739649,-122.663804
MLS Listing,,Vacant Land,Lot 1 Twin Oaks Ln,Freeland,WA,98249,225000,0,,Freeland,,120226,,7,,,Active,,,http://www.redfin.com/WA/Freeland/Lot-1-Twin-Oaks-Ln-98249/home/171942238,NWMLS,1667162,N,Y,48.018155,-122.514177
MLS Listing,,Vacant Land,5 Race Rd,Coupeville,WA,98239,175000,0,,Race Lagoon,,40162,,7,,,Active,,,http://www.redfin.com/WA/Coupeville/5-Race-Rd-98239/home/114023599,NWMLS,1667944,N,Y,48.2058918,-122.6058206
MLS Listing,,Condo/Co-op,1890 SW Scenic Heights Rd Unit B3,Oak Harbor,WA,98277,315000,3,2.5,Oak Harbor,1531,,2004,7,206,181,Active,,,http://www.redfin.com/WA/Oak-Harbor/1890-SW-Scenic-Heights-St-98277/unit-B3/home/16682191,NWMLS,1666777,N,Y,48.2832127,-122.6654231
MLS Listing,,Single Family Residential,4966 Spinnaker Dr,Freeland,WA,98249,450000,4,2.5,Holmes Harbor (Gyc),1922,9395,2006,7,234,,Active,,,http://www.redfin.com/WA/Freeland/4966-S-Spinnaker-Dr-98249/home/16696585,NWMLS,1667583,N,Y,48.030319,-122.548688
MLS Listing,,Single Family Residential,4936 Harbor Hills Dr,Freeland,WA,98249,675000,4,3,Holmes Harbor (Gyc),2683,7247,2007,8,252,,Active,,,http://www.redfin.com/WA/Freeland/4936-Harbor-Hills-Dr-98249/home/16846305,NWMLS,1667524,N,Y,48.031566,-122.542573
MLS Listing,,Single Family Residential,3289 Carriage Ct,Clinton,WA,98236,245000,2,1,Maxwelton,1038,80190,1913,8,236,,Active,,,http://www.redfin.com/WA/Clinton/3289-E-Carriage-Ct-98236/home/16706155,NWMLS,1666687,N,Y,47.960857,-122.436118
MLS Listing,,Single Family Residential,2433 Soundview Dr,Langley,WA,98260,595000,3,2.5,Useless Bay,2485,9001,1988,8,239,31,Active,,,http://www.redfin.com/WA/Langley/2433-Soundview-Dr-98260/home/16684876,NWMLS,1662455,N,Y,47.9974599,-122.48364
MLS Listing,,Vacant Land,Lot 6 Delphinium Dr,Greenbank,WA,98253,60000,0,,Coupeville,,9010,,8,,,Active,,,http://www.redfin.com/WA/Greenbank/Lot-6-Delphinium-Dr-98253/home/173258879,NWMLS,1662000,N,Y,48.114717,-122.570969
MLS Listing,,Condo/Co-op,130 E North Camano Dr #4,Camano Island,WA,98282,265000,2,1,Utsalady,856,4000,1978,8,310,250,Active,October-4-2020 12:00 PM,October-4-2020 03:00 PM,http://www.redfin.com/WA/Camano/130-E-North-Camano-Dr-98282/unit-4/home/16684347,NWMLS,1667079,N,Y,48.2527074,-122.4746533
MLS Listing,,Single Family Residential,580 SE Ireland St,Oak Harbor,WA,98277,299999,4,2.5,Oak Harbor,1914,9418,1956,9,157,,Active,,,http://www.redfin.com/WA/Oak-Harbor/580-SE-Ireland-St-98277/home/16687651,NWMLS,1666659,N,Y,48.2934875,-122.6463712
MLS Listing,,Single Family Residential,869 Cedar Ln,Camano Island,WA,98282,549000,3,3.75,Westside,3605,102366,1982,9,152,20,Active,,,http://www.redfin.com/WA/Camano/869-Cedar-Ln-98282/home/16701117,NWMLS,1666485,N,Y,48.2027839,-122.5302542
MLS Listing,,Vacant Land,Honeymoon Lake Dr,Greenbank,WA,98277,65000,0,,Greenbank,,13669,,10,,,Active,,,http://www.redfin.com/WA/GREENBANK/HONEYMOON-LAKE-DR-98253/home/22883613,NWMLS,1666285,N,Y,48.04943,-122.553778
MLS Listing,,Single Family Residential,2140 Colonial Way,Oak Harbor,WA,98277,474950,3,2.5,North Whidbey,2083,12395,1978,11,228,,Active,,,http://www.redfin.com/WA/Oak-Harbor/2140-Colonial-Way-98277/home/16699037,NWMLS,1665347,N,Y,48.2877741,-122.6816338
MLS Listing,,Vacant Land,2218 Corsair Ln,Oak Harbor,WA,98277,220000,0,,North Whidbey,,477930,,11,,,Active,,,http://www.redfin.com/WA/Unknown/Corsair-Ln-98277/home/22882081,NWMLS,1665361,N,Y,48.28704,-122.543469
MLS Listing,,Vacant Land,2215 Corsair Ln,Oak Harbor,WA,98277,170000,0,,North Whidbey,,217847,,11,,,Active,,,http://www.redfin.com/WA/Unknown/Corsair-Ln-98277/home/22891500,NWMLS,1665368,N,Y,48.287761,-122.544536
MLS Listing,,Single Family Residential,1265 E Camano Dr,Camano Island,WA,98282,350000,1,0.75,Country Club,852,10452,1965,12,411,,Active,,,http://www.redfin.com/WA/Camano/1265-E-Camano-Dr-98282/home/16700909,NWMLS,1665912,N,Y,48.1651305,-122.4789334
MLS Listing,,Single Family Residential,74 W Monticello Dr,Camano Island,WA,98282,485900,3,1.75,Country Club,1878,51114,1986,13,259,,Active,,,http://www.redfin.com/WA/Camano/74-W-Monticello-Dr-98282/home/16710105,NWMLS,1658064,N,Y,48.1610944,-122.4871261
MLS Listing,,Single Family Residential,3712 Emmet Pl,Langley,WA,98260,2250000,3,2.75,Baby Island,3474,239580,1994,14,648,17,Active,,,http://www.redfin.com/WA/Langley/3712-S-Emmet-Pl-98260/home/16689159,NWMLS,1662929,N,Y,48.076242,-122.510618
MLS Listing,,Single Family Residential,209 6th St,Langley,WA,98260,895000,2,1,Langley,1050,113575,1967,15,852,,Active,,,http://www.redfin.com/WA/Langley/209-Sixth-St-98260/home/16706444,NWMLS,1663967,N,Y,48.035554,-122.40694
MLS Listing,,Single Family Residential,275 Camaloch Dr,Camano Island,WA,98282,595000,3,2.5,Camaloch,3088,9206,1986,15,193,125,Active,,,http://www.redfin.com/WA/Camano/275-Camaloch-Dr-98282/home/16703159,NWMLS,1662027,N,Y,48.2209527,-122.4702866
MLS Listing,,Vacant Land,400xx State Route 20,Oak Harbor,WA,98277,195000,0,,North Whidbey,,337154,,15,,,Active,,,http://www.redfin.com/WA/OAK-HARBOR/Unknown-98277/home/22892045,NWMLS,1659071,N,Y,48.379361,-122.648809
MLS Listing,,Single Family Residential,1536 SE Camano Dr,Camano Island,WA,98282,399000,2,1.75,Country Club,1692,9750,1976,17,236,,Active,,,http://www.redfin.com/WA/Camano/1536-E-Camano-Dr-98282/home/16702080,NWMLS,1660794,N,Y,48.1546466,-122.4664328
MLS Listing,,Single Family Residential,250 Kineth Point Pl,Coupeville,WA,98239,699000,3,2.75,Coupeville,2996,34000,1994,18,233,28,Active,,,http://www.redfin.com/WA/Coupeville/250-Kineth-Point-Pl-98239/home/16695056,NWMLS,1662434,N,Y,48.2198656,-122.6381216
MLS Listing,,Single Family Residential,223 Scotland Dr,Camano Island,WA,98282,485000,2,2,Camaloch,1485,9600,1997,19,327,100,Active,,,http://www.redfin.com/WA/Camano/223-N-Scotland-Dr-98282/home/16703549,NWMLS,1660904,N,Y,48.2190711,-122.4631846
MLS Listing,,Single Family Residential,857 Olympic St Dr,Camano Island,WA,98282,600000,3,2.5,Madrona,3660,15261,1993,19,164,,Active,,,http://www.redfin.com/WA/Camano/857-W-Olympic-St-98282/home/16692912,NWMLS,1661720,N,Y,48.215538,-122.5298999
MLS Listing,,Vacant Land,69 Lochwood Dr,Camano Island,WA,98282,140000,0,,Camaloch,,6969,,19,,,Active,,,http://www.redfin.com/WA/Camano/69-E-Lochwood-Dr-98282/home/173145057,NWMLS,1661346,N,Y,48.224901,-122.464748
MLS Listing,,Vacant Land,377 Houston Rd,Coupeville,WA,98239,205000,0,,Central Whidbey,,774490,,20,,,Active,,,http://www.redfin.com/WA/Coupeville/377-Houston-Rd-98239/home/22884935,NWMLS,1661270,N,Y,48.154404,-122.594831
MLS Listing,,Single Family Residential,1953 Newman Rd,Freeland,WA,98249,2400000,3,2.5,Freeland,2188,269201,1940,21,1097,,Active,,,http://www.redfin.com/WA/Freeland/1953-Newman-Rd-98249/home/16709097,NWMLS,1659984,N,Y,48.014584,-122.511135
MLS Listing,,Vacant Land,E Camano Dr,Camano Island,WA,98282,120000,0,,Country Club,,7707,,21,,,Active,,,http://www.redfin.com/WA/CAMANO-ISLAND/E-CAMANO-DR-98282/home/22879545,NWMLS,1659075,N,Y,48.131299,-122.445303
MLS Listing,,Single Family Residential,840 Silver Cloud Ln,Greenbank,WA,98253,678000,5,3.25,Greenbank,4790,135036,1993,22,142,,Active,,,http://www.redfin.com/WA/Greenbank/840-E-Silver-Cloud-Ln-98253/home/16709916,NWMLS,1659159,N,Y,48.127009,-122.568731
MLS Listing,,Condo/Co-op,522 Creekside Ter #201,Langley,WA,98260,325000,2,1.25,Langley,1158,3654,1989,22,281,350,Active,,,http://www.redfin.com/WA/Langley/522-Creekside-Ter-98260/unit-201/home/92907044,NWMLS,1657161,N,Y,48.0372965,-122.4071712
MLS Listing,,Vacant Land,962 Terry Heights Ln,Camano Island,WA,98282,410000,0,,Camano Island,,238709,,22,,,Active,,,http://www.redfin.com/WA/Camano/962-N-350th-E-98282/home/16706451,NWMLS,1657221,N,Y,48.246003,-122.46239
MLS Listing,,Single Family Residential,4884 Magellan Dr,Freeland,WA,98249,419000,3,1,Bush Point,936,6787,1952,25,448,,Active,,,http://www.redfin.com/WA/Freeland/4884-Magellan-Dr-98249/home/16702704,NWMLS,1658820,N,Y,48.032858,-122.6021159
MLS Listing,,Mobile/Manufactured Home,576 Ocean View Dr,Oak Harbor,WA,98277,165000,2,1,Northgate Terrace,784,7800,1973,25,210,42,Active,October-3-2020 04:00 PM,October-3-2020 06:00 PM,http://www.redfin.com/WA/Oak-Harbor/576-W-Ocean-View-Dr-98277/home/16693638,NWMLS,1656260,N,Y,48.369128,-122.6463809
MLS Listing,,Single Family Residential,1156 Matterhorn Lp,Camano Island,WA,98282,659000,3,2.5,Cavalero,2230,20924,2020,25,296,50,Active,,,http://www.redfin.com/WA/Camano/1156-Matterhorn-Loop-98282/home/113649958,NWMLS,1659142,N,Y,48.1687401,-122.4836663
MLS Listing,,Vacant Land,La Cana St,Coupeville,WA,98239,35000,0,,Coupeville,,7800,,26,,,Active,,,http://www.redfin.com/WA/COUPEVILLE/LA-CANA-ST-98239/home/22881364,NWMLS,1658475,N,Y,48.234976,-122.753965
MLS Listing,,Single Family Residential,228 Goodrich Rd,Camano Island,WA,98282,575000,3,2.5,Livingston Bay,2958,48787,1990,26,194,,Active,,,http://www.redfin.com/WA/Camano/228-N-Goodrich-Rd-98282/home/16703565,NWMLS,1654622,N,Y,48.219153,-122.4512649
MLS Listing,,Single Family Residential,216 6th St,Langley,WA,98260,759000,3,1.75,Langley,1645,8493,1989,26,461,,Active,October-3-2020 12:00 PM,October-3-2020 02:00 PM,http://www.redfin.com/WA/Langley/216-Sixth-St-98260/home/16704869,NWMLS,1655947,N,Y,48.0366573,-122.4085757
MLS Listing,,Vacant Land,W Henni Road (Lot A),Oak Harbor,WA,98277,125000,0,,Oak Harbor,,553212,,26,,,Active,,,http://www.redfin.com/WA/Unknown/W-Henni-Rd-98277/home/22096683,NWMLS,1651311,N,Y,48.359627,-122.633148
MLS Listing,,Townhouse,306 S Main St Unit B2,Coupeville,WA,98239,347000,3,2.5,Coupeville,1606,,2020,26,216,370,Active,,,http://www.redfin.com/WA/Coupeville/306-S-Main-St-98239/unit-B2/home/173068682,NWMLS,1657912,N,Y,48.2086763,-122.6865217
MLS Listing,,Mobile/Manufactured Home,865 Bobwhite Ln,Coupeville,WA,98239,259000,2,2,Crockett Lake,1440,25563,1975,27,180,,Active,,,http://www.redfin.com/WA/Coupeville/865-S-Bobwhite-Ln-98239/home/16700038,NWMLS,1649097,N,Y,48.1792762,-122.6494542
MLS Listing,,Single Family Residential,631 Kodiak Ave,Camano Island,WA,98282,589950,3,2,Camano City,1905,23522,2021,27,310,,Active,,,http://www.redfin.com/WA/Camano/631-Kodiak-Ave-98282/home/173059316,NWMLS,1657984,N,Y,48.1726975,-122.5180554
MLS Listing,,Vacant Land,Countner Ct,Clinton,WA,98236,499000,0,,Bayview,,217800,,27,,,Active,,,http://www.redfin.com/WA/Unknown/Countner-Ct-98236/home/22894221,NWMLS,1652346,N,Y,47.987197,-122.457553
MLS Listing,,Single Family Residential,1081 Saint Moritz Ct,Camano Island,WA,98282,529990,3,2.5,Cavalero,2547,23503,2020,28,208,,Active,,,http://www.redfin.com/WA/Camano/1081-St-Moritz-Ct-98282/home/22884314,NWMLS,1657088,N,Y,48.171453,-122.481218
MLS Listing,,Condo/Co-op,51 NW Columbia Dr #205,Oak Harbor,WA,98277,130000,2,1.75,City Of Oak Harbor,845,,1975,28,154,426,Active,,,http://www.redfin.com/WA/Oak-Harbor/51-NW-Columbia-Dr-98277/unit-205/home/35654117,NWMLS,1656301,N,Y,48.3027477,-122.658484
MLS Listing,,Vacant Land,89 Chambers Ct,Coupeville,WA,98239,29500,0,,Coupeville,,19859,,29,,,Active,,,http://www.redfin.com/WA/Coupeville/89-W-Chambers-Ct-98239/home/173027014,NWMLS,1656759,N,Y,48.1670162,-122.6204818
MLS Listing,,Single Family Residential,2811 Heller Rd,Oak Harbor,WA,98277,1350000,4,3,Oak Harbor,4377,679100,2007,29,308,,Active,,,http://www.redfin.com/WA/Oak-Harbor/2811-Heller-St-98277/home/21655533,NWMLS,1656129,N,Y,48.3113529,-122.677004
MLS Listing,,Single Family Residential,1806 Newman Rd,Freeland,WA,98249,3499000,3,2.25,Freeland,2850,108464,1978,30,1228,,Active,,,http://www.redfin.com/WA/Freeland/1806-Newman-Rd-98249/home/59699763,NWMLS,1655863,N,Y,48.0103898,-122.5172989
MLS Listing,,Vacant Land,2043 Saratoga View Ln,Oak Harbor,WA,98277,225000,0,,North Whidbey,,27960,,31,,,Active,,,http://www.redfin.com/WA/Oak-Harbor/2043-N-Saratoga-St-98277/home/172990933,NWMLS,1655254,N,Y,48.3263227,-122.6800963
MLS Listing,,Vacant Land,Watkins Rd,Freeland,WA,98249,125000,0,,Freeland,,103638,,32,,,Active,,,http://www.redfin.com/WA/Freeland/Watkins-Rd-98249/home/144429408,NWMLS,1653373,N,Y,48.019435,-122.512739
MLS Listing,,Vacant Land,Lot 20 Nettle Rd,Greenbank,WA,98253,135000,0,,Greenbank,,10201,,33,,,Active,,,http://www.redfin.com/WA/Greenbank/Lot-20-E-Nettle-Rd-98253/home/172993213,NWMLS,1653547,N,Y,48.111037,-122.569337
MLS Listing,,Vacant Land,1087 American Ln,Coupeville,WA,98239,1100000,0,,Coupeville,,225205,,33,,,Active,,,http://www.redfin.com/WA/Coupeville/1087-American-Ln-98239/home/161217143,NWMLS,1649755,N,Y,48.24979,-122.756831
MLS Listing,,Single Family Residential,5865 Fish Rd,Freeland,WA,98249,589000,2,2.25,Freeland,1954,30567,1990,33,301,,Active,,,http://www.redfin.com/WA/Freeland/5865-Fish-Rd-98249/home/16711211,NWMLS,1654967,N,Y,47.9996362,-122.5398726
MLS Listing,,Single Family Residential,5023 Harbor Hills Dr,Freeland,WA,98249,1950000,0,,Holmes Harbor (Gyc),8358,223000,2004,33,233,,Active,,,http://www.redfin.com/WA/Freeland/5023-Harbor-Hills-Dr-98249/home/16712365,NWMLS,1653439,N,Y,48.0284039,-122.5388801
MLS Listing,,Single Family Residential,1089 Saint Moritz Ct,Camano Island,WA,98282,529990,3,2.5,Cavalero,2547,21344,2020,33,208,,Active,,,http://www.redfin.com/WA/Camano/1089-St-Moritz-Ct-98282/home/22884313,NWMLS,1654774,N,Y,48.17118,-122.481268
MLS Listing,,Condo/Co-op,651 SE Bayshore Dr Unit A303,Oak Harbor,WA,98277,315000,2,1.75,City Of Oak Harbor,1320,1553,1987,33,239,479,Active,,,http://www.redfin.com/WA/Oak-Harbor/651-SE-Bayshore-Dr-98277/unit-A303/home/16685133,NWMLS,1648264,N,Y,48.2867153,-122.6497277
MLS Listing,,Vacant Land,Susana Dr,Freeland,WA,98249,200000,0,,Bush Point,,14100,,34,,,Active,,,http://www.redfin.com/WA/FREELAND/SUSANA-DR-98249/home/16703741,NWMLS,1654412,N,Y,48.036132,-122.597919
MLS Listing,,Single Family Residential,4925 Blue Lady Ln,Langley,WA,98260,859500,2,2.75,Langley,3414,13016,1988,34,252,,Active,,,http://www.redfin.com/WA/Langley/4925-Blue-Lady-Ln-98260/home/16695448,NWMLS,1652766,N,Y,48.029706,-122.3775179
MLS Listing,,Vacant Land,Appian Way,Oak Harbor,WA,98277,75000,0,,North Whidbey,,12454,,34,,,Active,,,http://www.redfin.com/WA/OAK-HARBOR/APPIAN-WAY-98277/home/22885745,NWMLS,1651403,N,Y,48.336605,-122.608859
MLS Listing,,Vacant Land,Appian Way,Oak Harbor,WA,98277,75000,0,,North Whidbey,,14375,,34,,,Active,,,http://www.redfin.com/WA/OAK-HARBOR/APPIAN-WAY-98277/home/22885746,NWMLS,1651384,N,Y,48.336606,-122.60947
MLS Listing,,Single Family Residential,1410 Larkspur Ln,Camano Island,WA,98282,634500,3,2.5,Camano Island,3100,19184,1969,36,205,,Active,October-3-2020 12:00 PM,October-3-2020 03:00 PM,http://www.redfin.com/WA/Camano/1410-E-Larkspur-Ln-98282/home/16694900,NWMLS,1649582,N,Y,48.242814,-122.405368
MLS Listing,,Vacant Land,Oak Ridge Dr,Camano Island,WA,98282,22000,0,,Lost Lake,,13473,,39,,,Active,,,http://www.redfin.com/WA/CAMANO-ISLAND/OAK-RIDGE-DR-98282/home/22881009,NWMLS,1651552,N,Y,48.151045,-122.490956
MLS Listing,,Vacant Land,944 Silver Lake Rd,Oak Harbor,WA,98277,115000,0,,Oak Harbor,,182516,,40,,,Active,,,http://www.redfin.com/WA/Oak-Harbor/944-Silver-Lake-Rd-98277/home/16708995,NWMLS,1650145,N,Y,48.3174675,-122.5641535
MLS Listing,,Single Family Residential,25990 State Route 20,Coupeville,WA,98239,999000,3,2.5,Penn Cove,2882,19000,1950,40,347,,Active,,,http://www.redfin.com/WA/Coupeville/25990-WA-20-98239/home/16714016,NWMLS,1648706,N,Y,48.2335878,-122.7270332
MLS Listing,,Single Family Residential,664 Comfort Ct,Camano Island,WA,98282,542000,3,2.5,Westside,1721,92763,1993,42,315,,Active,,,http://www.redfin.com/WA/Camano/664-Comfort-Ct-98282/home/16708971,NWMLS,1646464,N,Y,48.1871129,-122.5236598
MLS Listing,,Vacant Land,8069 S George Dr,Clinton,WA,98236,339950,0,,Scatchet Head,,396831,,43,,,Active,,,http://www.redfin.com/WA/Clinton/8069-S-George-Dr-98236/home/172762907,NWMLS,1649289,N,Y,47.9180834,-122.4135488
MLS Listing,,Vacant Land,Fletcher Pl,Coupeville,WA,98239,99000,0,,Admirals Cove,,7541,,44,,,Active,,,http://www.redfin.com/WA/COUPEVILLE/FLETCHER-PL-98239/home/22892573,NWMLS,1648089,N,Y,48.16926,-122.623347
MLS Listing,,Single Family Residential,4895 Harbor Hills Rd,Freeland,WA,98249,825000,5,3.25,Holmes Harbor (Gyc),3492,7475,2009,44,236,,Active,,,http://www.redfin.com/WA/Freeland/4895-Harbor-Hills-Dr-98249/home/22892982,NWMLS,1645345,N,Y,48.033183,-122.542528
MLS Listing,,Single Family Residential,4912 Jones Rd,Oak Harbor,WA,98277,3200000,3,3.75,Oak Harbor,2917,217800,2003,44,1097,,Active,,,http://www.redfin.com/WA/Oak-Harbor/4912-Jones-Rd-98277/home/16706985,NWMLS,1641545,N,Y,48.387649,-122.587558
MLS Listing,,Single Family Residential,3643 Shorewood Ave,Greenbank,WA,98253,415000,2,1.5,Lagoon Point,1492,12540,1954,47,278,,Active,,,http://www.redfin.com/WA/Greenbank/3643-S-Shorewood-Ave-98253/home/16694708,NWMLS,1647450,N,Y,48.0778852,-122.6080527
MLS Listing,,Vacant Land,8191 Cultus Dr,Clinton,WA,98236,259950,0,,Sandy Hook,,15000,,47,,,Active,,,http://www.redfin.com/WA/Clinton/8191-Cultus-Dr-98236/home/22892499,NWMLS,1647646,N,Y,47.913767,-122.389467
MLS Listing,,Single Family Residential,505 Michelle Dr,Camano Island,WA,98282,1100000,4,2.5,Driftwood Heights,3225,42826,2020,47,341,,Active,,,http://www.redfin.com/WA/Camano/505-S-Michelle-Dr-98282/home/16845829,NWMLS,1647408,N,Y,48.1923106,-122.4799637
MLS Listing,,Vacant Land,4401 Witter Rd,Langley,WA,98260,489000,0,,Langley,,10362,,48,,,Active,,,http://www.redfin.com/WA/Langley/4401-Witter-Rd-98260/home/172717704,NWMLS,1646606,N,Y,48.0206418,-122.375389
MLS Listing,,Vacant Land,Springwater Ln,Clinton,WA,98236,95000,0,,Clinton,,217800,,49,,,Active,,,http://www.redfin.com/WA/CLINTON/SPRINGWATER-LN-98236/home/22881943,NWMLS,1637893,N,Y,47.952293,-122.408207
MLS Listing,,Vacant Land,Lot 18 Harrington Rd,Coupeville,WA,98239,170000,0,,Coupeville,,33807,,49,,,Active,,,http://www.redfin.com/WA/Coupeville/18-Race-Rd-98239/unit-18/home/25719540,NWMLS,1644957,N,Y,48.2057996,-122.6076046
MLS Listing,,Single Family Residential,2659 Airline Way,Oak Harbor,WA,98277,1198700,3,3,Oak Harbor,3149,1906845,1974,49,381,,Active,,,http://www.redfin.com/WA/Oak-Harbor/2659-Airline-Way-98277/home/16846715,NWMLS,1644793,N,Y,48.30592,-122.688293
MLS Listing,,Single Family Residential,429 3rd St,Langley,WA,98260,599000,5,2,Langley,1920,7339,1985,50,312,,Active,,,http://www.redfin.com/WA/Langley/429-3rd-St-98260/home/16692483,NWMLS,1639716,N,Y,48.038885,-122.4117788
MLS Listing,,Vacant Land,S Broadmoor Rd,Camano Island,WA,98282,299500,0,,Sunnyshore Acres,,300564,,51,,,Active,,,http://www.redfin.com/WA/CAMANO-ISLAND/BROADMOOR-RD-98282/home/22881540,NWMLS,1644949,N,Y,48.112222,-122.429531
MLS Listing,,Vacant Land,Scatchet Head Rd,Clinton,WA,98236,280000,0,,Clinton,,1132560,,51,,,Active,,,http://www.redfin.com/WA/Clinton/Scatchet-Head-Rd-98236/home/104477345,NWMLS,1644042,N,Y,47.933631,-122.412773
MLS Listing,,Vacant Land,Perry Lot 135 & Lot 136 Dr,Coupeville,WA,98239,25000,0,,Admirals Cove,,15149,,51,,,Active,,,http://www.redfin.com/WA/Coupeville/135-Perry-Dr-98239/home/113734663,NWMLS,1642835,N,Y,48.1678718,-122.6237883
MLS Listing,,Vacant Land,3585 Seashore Ave,Greenbank,WA,98253,300000,0,,Lagoon Point,,7080,,52,,,Active,,,http://www.redfin.com/WA/Greenbank/3585-S-Seashore-Ave-98253/home/16691391,NWMLS,1644150,N,Y,48.080015,-122.6115679
MLS Listing,,Single Family Residential,595 E Mountain View Dr,Camano Island,WA,98282,499900,3,1.75,Country Club,1598,20908,2020,54,313,,Active,,,http://www.redfin.com/WA/Camano/595-E-Mountain-View-Rd-98282/home/22894541,NWMLS,1643267,N,Y,48.138397,-122.451138
MLS Listing,,Mobile/Manufactured Home,324 Cottonwood Dr,Camano Island,WA,98282,449900,3,2,Camano Island,1344,198198,1999,55,335,,Active,,,http://www.redfin.com/WA/Camano/324-Cottonwood-Dr-98282/home/16710913,NWMLS,1642443,N,Y,48.204895,-122.501792
MLS Listing,,Single Family Residential,318 Woodland Dr,Camano Island,WA,98282,500000,3,2,Camaloch,1808,10800,2008,56,277,100,Active,,,http://www.redfin.com/WA/Camano/318-Woodland-Dr-98282/home/21656103,NWMLS,1642384,N,Y,48.2288114,-122.4656956
MLS Listing,,Vacant Land,250 E North Camano Dr,Camano Island,WA,98282,210000,0,,Camano Island,,141570,,56,,,Active,,,http://www.redfin.com/WA/Camano/250-E-North-Camano-Dr-98282/home/22883028,NWMLS,1638302,N,Y,48.251412,-122.467825
MLS Listing,,Vacant Land,Lot 15 Haines Rd,Freeland,WA,98249,68000,0,,Holmes Harbor (Gyc),,7790,,56,,,Active,,,http://www.redfin.com/WA/Freeland/Lot-15-Haines-Rd-98249/home/172664011,NWMLS,1631735,N,Y,48.034565,-122.541324
MLS Listing,,Vacant Land,0 W Camano Dr,Camano Island,WA,98282,255000,0,,Westside,,435600,,56,,,Active,,,http://www.redfin.com/WA/CAMANO-ISLAND/W-CAMANO-DR-98282/home/16695613,NWMLS,1641998,N,Y,48.091568,-122.409307
MLS Listing,,Single Family Residential,1198 Leahy Dr,Coupeville,WA,98239,520000,3,2.25,Admirals Cove,2434,14960,2004,57,214,,Active,,,http://www.redfin.com/WA/Coupeville/1198-S-Leahy-Dr-98239/home/16703785,NWMLS,1641299,N,Y,48.166783,-122.6183822
MLS Listing,,Single Family Residential,4896 Magellan Dr,Freeland,WA,98249,300000,2,0.75,Bush Point,858,13574,1955,57,350,,Active,,,http://www.redfin.com/WA/Freeland/4896-Magellan-Dr-98249/home/16703955,NWMLS,1640937,N,Y,48.032428,-122.602212
MLS Listing,,Vacant Land,Hagen Rd,Camano Island,WA,98282,255000,0,,Westside,,435600,,62,,,Active,,,http://www.redfin.com/WA/Camano/S-Hagen-Rd-98282/home/16681658,NWMLS,1639340,N,Y,48.166286,-122.515156
MLS Listing,,Single Family Residential,4947 Spearview Pl,Freeland,WA,98249,524900,3,1.75,Holmes Harbor (Gyc),1683,7201,2021,63,312,35,Active,,,http://www.redfin.com/WA/Freeland/4947-Spearview-Pl-98249/home/172615026,NWMLS,1625681,N,Y,48.0303081,-122.5466672
MLS Listing,,Vacant Land,EL GATO St,Coupeville,WA,98239,23500,0,,Coupeville,,8495,,65,,,Active,,,http://www.redfin.com/WA/COUPEVILLE/EL-GATO-ST-98239/home/22878394,NWMLS,1636629,N,Y,48.2381,-122.753814
MLS Listing,,Vacant Land,Teronda Dr,Coupeville,WA,98239,25000,0,,Central Whidbey,,8147,,65,,,Active,,,http://www.redfin.com/WA/COUPEVILLE/TERONDA-DR-98239/home/22879765,NWMLS,1636661,N,Y,48.129674,-122.591002
MLS Listing,,Single Family Residential,946 Edgecliff Dr,Langley,WA,98260,880000,3,1.75,Langley,1672,124175,1924,67,526,,Active,,,http://www.redfin.com/WA/Langley/946-Edgecliff-Dr-98260/home/16707768,NWMLS,1635643,N,Y,48.0328779,-122.388613
MLS Listing,,Single Family Residential,890 S East Camano Dr,Camano Island,WA,98282,625000,2,2.25,Cavalero,2136,23127,2020,68,293,,Active,,,http://www.redfin.com/WA/Camano/890-E-Camano-Dr-98282/home/16845945,NWMLS,1635744,N,Y,48.178656,-122.480601
MLS Listing,,Single Family Residential,110 S Sunset Dr,Camano Island,WA,98282,525000,2,2.25,Camano Island,1906,13032,2020,68,275,32,Active,,,http://www.redfin.com/WA/Camano/110-S-Sunset-Dr-98282/home/171031512,NWMLS,1635746,N,Y,48.2072524,-122.5328132
MLS Listing,,Vacant Land,Coronado Ave,Coupeville,WA,98239,12500,0,,Sierra,,8369,,69,,,Active,,,http://www.redfin.com/WA/COUPEVILLE/CORONADO-AVE-98239/home/22894374,NWMLS,1633747,N,Y,48.232151,-122.757359
MLS Listing,,Single Family Residential,1107 St Moritz Ct,Camano Island,WA,98282,509000,3,1.75,Cavalero,1866,26243,2020,70,273,,Active,,,http://www.redfin.com/WA/Camano/1107-St-Moritz-Ct-98282/home/22884316,NWMLS,1634885,N,Y,48.170551,-122.481379
MLS Listing,,Single Family Residential,1362 Reed Pl,Freeland,WA,98249,949000,3,3.75,Freeland,6536,29045,1999,71,145,,Active,,,http://www.redfin.com/WA/Freeland/1362-Reed-Pl-98249/home/16698167,NWMLS,1630963,N,Y,48.0235364,-122.5412196
MLS Listing,,Vacant Land,990 Classic Rd,Greenbank,WA,98253,60000,0,,Greenbank,,213647,,74,,,Active,,,http://www.redfin.com/WA/Greenbank/990-E-Classic-Rd-98253/home/167881856,NWMLS,1632780,N,Y,48.0612383,-122.5619728
MLS Listing,,Single Family Residential,8121 Sandy Hook,Clinton,WA,98236,892000,2,1.5,Sandy Hook,1800,6000,1963,75,496,83,Active,,,http://www.redfin.com/WA/Clinton/8121-Sandy-Hook-Ter-98236/home/16689704,NWMLS,1624063,N,Y,47.9162879,-122.3934301
MLS Listing,,Single Family Residential,4853 Lakeside Dr,Langley,WA,98260,3700000,3,2.5,Langley,1812,188614,1996,76,2042,,Active,,,http://www.redfin.com/WA/Langley/4853-Lakeside-Dr-98260/home/16698657,NWMLS,1631476,N,Y,48.035371,-122.484318
MLS Listing,,Single Family Residential,2150 Calera Way,Langley,WA,98260,1600000,4,4.5,Langley,6878,435600,2004,77,233,,Active,,,http://www.redfin.com/WA/Langley/2150-E-Calera-Way-98260/home/21655513,NWMLS,1630824,N,Y,48.0614739,-122.497376
MLS Listing,,Vacant Land,Lot A Harbor Hills Dr,Freeland,WA,98249,595000,0,,Holmes Harbor (Gyc),,178160,,78,,,Active,,,http://www.redfin.com/WA/Freeland/Lot-A-Harbor-Hills-Dr-98249/home/145244401,NWMLS,1629089,N,Y,48.027386,-122.538368
MLS Listing,,Single Family Residential,3288 Smugglers Cove Rd,Greenbank,WA,98253,4350000,2,2.25,Greenbank,4251,405979,2006,79,1023,,Active,,,http://www.redfin.com/WA/Greenbank/3288-S-Smugglers-Cove-Rd-98253/home/16711503,NWMLS,1623136,N,Y,48.090891,-122.6033939
MLS Listing,,Vacant Land,Center St,Coupeville,WA,98239,155000,0,,Coupeville,,10019,,79,,,Active,,,http://www.redfin.com/WA/Coupeville/Center-St-NE-98239/home/89067168,NWMLS,1626744,N,Y,48.217964,-122.684786
MLS Listing,,Vacant Land,SW 24th Ave,Oak Harbor,WA,98277,475000,0,,City Of Oak Harbor,,209492,,80,,,Active,,,http://www.redfin.com/WA/Oak-Harbor/SW-24th-Ave-98277/home/59700189,NWMLS,1629328,N,Y,48.280393,-122.679221
MLS Listing,,Vacant Land,E Cleven Park Ln,Camano Island,WA,98282,169500,0,,Camano Shores,,8081,,81,,,Active,,,http://www.redfin.com/WA/Camano/Cleven-Park-Rd-98282/home/144955315,NWMLS,1614183,N,Y,48.130631,-122.464391
MLS Listing,,Single Family Residential,4826 Birdsong Pl,Freeland,WA,98249,525000,3,1.75,Holmes Harbor (Gyc),1774,12197,2020,82,296,,Active,,,http://www.redfin.com/WA/Freeland/4826-Birdsong-Pl-98249/home/172440670,NWMLS,1627444,N,Y,48.036066,-122.54606
MLS Listing,,Single Family Residential,2590 E Sunlight Beach Rd,Clinton,WA,98236,1100000,3,1.5,Useless Bay,1216,10000,1945,82,905,,Active,,,http://www.redfin.com/WA/Clinton/2590-Sunlight-Beach-Rd-98236/home/16687299,NWMLS,1622905,N,Y,47.9892477,-122.4739868
MLS Listing,,Single Family Residential,2648 El Sol Pl,Coupeville,WA,98239,889000,3,1.75,Sierra,1802,217803,1860,83,493,24,Active,,,http://www.redfin.com/WA/Coupeville/2648-W-El-Sol-Pl-98239/home/16715089,NWMLS,1620156,N,Y,48.234448,-122.759421
MLS Listing,,Vacant Land,SR 20,Oak Harbor,WA,98277,74500,0,,Oak Harbor,,108314,,86,,,Active,,,http://www.redfin.com/WA/OAK-HARBOR/Unknown-98277/home/22887158,NWMLS,1624378,N,Y,48.358744,-122.63924
MLS Listing,,Vacant Land,752 Sunny Ln,Camano Island,WA,98282,179900,0,,Westside,,101059,,89,,,Active,,,http://www.redfin.com/WA/Camano/752-Sunny-Ln-98282/home/172373930,NWMLS,1625276,N,Y,48.2103281,-122.5234939
MLS Listing,,Vacant Land,96 Salmon St,Greenbank,WA,98253,245000,0,,Lagoon Point,,176456,,89,,,Active,,,http://www.redfin.com/WA/Greenbank/96-Salmon-St-98253/home/165427231,NWMLS,1624626,N,Y,48.0719914,-122.6089333
MLS Listing,,Vacant Land,2021 Shore Ave,Freeland,WA,98249,395000,0,,Useless Bay,,9985,,90,,,Active,,,http://www.redfin.com/WA/Freeland/2021-Shore-Ave-98249/home/22881556,NWMLS,1623877,N,Y,47.9869435,-122.5065021
MLS Listing,,Vacant Land,5850 Alpha Ln,Freeland,WA,98249,175000,0,,Freeland,,29142,,91,,,Active,,,http://www.redfin.com/WA/Freeland/5850-Alpha-Ln-98249/home/22891579,NWMLS,1618482,N,Y,47.998508,-122.5401499
MLS Listing,,Vacant Land,Silver Lake Rd,Oak Harbor,WA,98277,180000,0,,Silver Lake,,285754,,92,,,Active,,,http://www.redfin.com/WA/OAK-HARBOR/SILVER-LAKE-RD-98277/home/22888448,NWMLS,1622514,N,Y,48.318396,-122.540008
MLS Listing,,Vacant Land,8th Ave,Oak Harbor,WA,98277,599000,0,,City Of Oak Harbor,,148975,,96,,,Active,,,http://www.redfin.com/WA/Oak-Harbor/SE-8th-Ave-98277/home/22887217,NWMLS,1621920,N,Y,48.305117,-122.643185
MLS Listing,,Single Family Residential,2288 W Skycrest Dr,Coupeville,WA,98239,926000,3,2.5,Coupeville,3707,221284,1990,97,250,,Active,,,http://www.redfin.com/WA/Coupeville/2288-Skycrest-Dr-98239/home/16713438,NWMLS,1609627,N,Y,48.238742,-122.739891
MLS Listing,,Vacant Land,930 Little Valley Ln,Greenbank,WA,98253,135000,0,,Greenbank,,519235,,99,,,Active,,,http://www.redfin.com/WA/Greenbank/930-Little-Valley-LN-98253/home/172243646,NWMLS,1619262,N,Y,48.055189,-122.565367
MLS Listing,,Vacant Land,2150 Newman Rd,Langley,WA,98260,644000,0,,Langley,,768675,,101,,,Active,,,http://www.redfin.com/WA/Langley/2150-Newman-Rd-98260/home/169636235,NWMLS,1617892,N,Y,48.0101141,-122.5006528
MLS Listing,,Vacant Land,Lot 13 Honeymoon Lake Dr,Greenbank,WA,98253,65000,0,,Honeymoon Lake,,14225,,102,,,Active,,,http://www.redfin.com/WA/Greenbank/Lot-13-Honeymoon-Lake-Dr-98253/home/172234057,NWMLS,1618509,N,Y,48.051541,-122.553728
MLS Listing,,Vacant Land,Bon Air Dr,Coupeville,WA,98239,92000,0,,Bon Air,,15681,,104,,,Active,,,http://www.redfin.com/WA/COUPEVILLE/BON-AIR-DR-98239/home/22885612,NWMLS,1616670,N,Y,48.136269,-122.598387
MLS Listing,,Single Family Residential,1863 North Bluff Rd,Coupeville,WA,98239,695000,2,2.75,Greenbank,2072,52272,1993,106,335,,Active,,,http://www.redfin.com/WA/Coupeville/1863-N-Bluff-Rd-98239/home/16698577,NWMLS,1616863,N,Y,48.142591,-122.568346
MLS Listing,,Vacant Land,Humphrey Lot B Rd,Clinton,WA,98236,449000,0,,Columbia Beach,,123275,,110,,,Active,,,http://www.redfin.com/WA/CLINTON/HUMPHREY-RD-98236/home/22883063,NWMLS,1608917,N,Y,47.966535,-122.354246
MLS Listing,,Vacant Land,6243 Bob Galbreath Rd,Clinton,WA,98236,225000,0,,Clinton,,164200,,112,,,Active,,,http://www.redfin.com/WA/Clinton/6243-Bob-Galbreath-Rd-98236/home/21516792,NWMLS,1613666,N,Y,47.9824322,-122.3602707
MLS Listing,,Single Family Residential,963 Edgecliff Dr,Langley,WA,98260,1245000,1,1,Langley,1400,82700,1962,114,889,,Active,,,http://www.redfin.com/WA/Langley/963-Edgecliff-Dr-98260/home/16708524,NWMLS,1612678,N,Y,48.0333475,-122.388106
MLS Listing,,Vacant Land,144 West Beach Rd,Oak Harbor,WA,98277,185000,0,,West Beach,,38333,,124,,,Active,,,http://www.redfin.com/WA/Unknown/144-W-Beach-Rd-98277/home/171939585,NWMLS,1608154,N,Y,48.262578,-122.749529
MLS Listing,,Vacant Land,Admirals Dr,Coupeville,WA,98239,46000,0,,Admirals Cove,,7270,,126,,,Active,,,http://www.redfin.com/WA/Unknown/Admirals-Dr-98239/home/146401480,NWMLS,1606817,N,Y,48.165978,-122.62061
MLS Listing,,Vacant Land,Hwy 20,Oak Harbor,WA,98277,95000,0,,Dugualla Bay,,179467,,126,,,Active,,,http://www.redfin.com/WA/OAK-HARBOR/Unknown-98277/home/22887837,NWMLS,1606252,N,Y,48.356078,-122.614379
MLS Listing,,Vacant Land,5067 E Harbor Rd,Freeland,WA,98249,220000,0,,Freeland,,31512,,132,,,Active,,,http://www.redfin.com/WA/Freeland/5067-E-Harbor-Rd-98249/home/16711626,NWMLS,1605036,N,Y,48.0268568,-122.5067569
MLS Listing,,Vacant Land,5359 Honeymoon Bay Rd,Freeland,WA,98249,299000,0,,Freeland,,57550,,133,,,Active,,,http://www.redfin.com/WA/Freeland/5359-S-Honeymoon-Bay-Rd-98249/home/22893245,NWMLS,1604131,N,Y,48.015883,-122.5455416
MLS Listing,,Vacant Land,State Rt. 20,Oak Harbor,WA,98277,395000,0,,Oak Harbor,,1150420,,135,,,Active,,,http://www.redfin.com/WA/Oak-Harbor/Unknown-98277/home/22891107,NWMLS,1601210,N,Y,48.271695,-122.670647
MLS Listing,,Single Family Residential,13322 State Route 20,Coupeville,WA,98239,899000,3,3,Coupeville,2073,44635,1986,138,434,,Active,,,http://www.redfin.com/WA/Coupeville/13322-WA-20-98239/home/16846329,NWMLS,1600550,N,Y,48.1609362,-122.6644715
MLS Listing,,Single Family Residential,1860 Hunskor Rd,Oak Harbor,WA,98277,1250000,3,2.25,Mariners Cove,2610,218235,1986,138,479,,Active,,,http://www.redfin.com/WA/Oak-Harbor/1860-E-Hunskor-Rd-98277/home/16710296,NWMLS,1601107,N,Y,48.293483,-122.514742
MLS Listing,,Vacant Land,25 Sunset Ridge Ln,Langley,WA,98260,279000,0,,Goss Lake,,215186,,141,,,Active,,,http://www.redfin.com/WA/Unknown/25-E-Rose-Ridge-Dr-98260/home/171604032,NWMLS,1599365,N,Y,48.047409,-122.475816
MLS Listing,,Single Family Residential,6845 Holst Rd,Clinton,WA,98236,825000,3,3,Clinton,2963,101100,1979,144,278,,Active,,,http://www.redfin.com/WA/Clinton/6845-Holst-Rd-98236/home/16707429,NWMLS,1599295,N,Y,47.962128,-122.380384
MLS Listing,,Vacant Land,Lot 128 Mariner Beach Dr,Oak Harbor,WA,98277,305000,0,,Oak Harbor,,5880,,145,,,Active,,,http://www.redfin.com/WA/Unknown/Lot-128-Mariner-Beach-Dr-98277/home/171601924,NWMLS,1597443,N,Y,48.289122,-122.519041
MLS Listing,,Vacant Land,Roycroft Ln Lot C,Coupeville,WA,98239,109900,0,,Coupeville,,213008,,145,,,Active,,,http://www.redfin.com/WA/Coupeville/Roycroft-LN-98239/unit-C/home/168677940,NWMLS,1597705,N,Y,48.125772,-122.569664
MLS Listing,,Vacant Land,492 Brentwood Dr,Camano Island,WA,98282,420000,0,,Camano Island,,20823,,146,,,Active,,,http://www.redfin.com/WA/Camano/492-W-Brentwood-Dr-98282/home/167022458,NWMLS,1598880,N,Y,48.2502075,-122.5045148
MLS Listing,,Single Family Residential,2919 Newell Rd,Camano Island,WA,98282,1246000,3,2.5,Sierra Vista,2514,27493,2020,146,496,,Active,,,http://www.redfin.com/WA/Camano/2919-Newell-Rd-98282/home/59700831,NWMLS,1596523,N,Y,48.104593,-122.4036991
MLS Listing,,Vacant Land,Lot 4 Cascade View Dr,Camano Island,WA,98282,165000,0,,Country Club,,29450,,149,,,Active,,,http://www.redfin.com/WA/Camano/Lot-4-Cascade-View-Dr-98282/home/171536243,NWMLS,1595577,N,Y,48.141582,-122.452023
MLS Listing,,Single Family Residential,2224 & 2226 Hastie Lake Rd,Oak Harbor,WA,98277,1900000,7,5.5,Oak Harbor,6139,860310,2003,155,309,,Active,,,http://www.redfin.com/WA/Oak-Harbor/2226-W-Hastie-Lake-Rd-98277/home/16714326,NWMLS,1593395,N,Y,48.2664929,-122.7374339
MLS Listing,,Vacant Land,6303 Kirkhill Rd,Clinton,WA,98236,235000,0,,Clinton,,212137,,158,,,Active,,,http://www.redfin.com/WA/CLINTON/6303-KIRKHILL-RD-98236/home/22890835,NWMLS,1593568,N,Y,47.98171,-122.439166
MLS Listing,,Single Family Residential,333 W Frostad Rd,Oak Harbor,WA,98277,570000,3,2.75,North Whidbey,3314,399010,1997,161,172,,Active,,,http://www.redfin.com/WA/Oak-Harbor/333-W-Frostad-Rd-98277/home/16714484,NWMLS,1570186,N,Y,48.346551,-122.632557
MLS Listing,,Vacant Land,1480 Rolling Rd,Freeland,WA,98249,130000,0,,Freeland,,103673,,162,,,Active,,,http://www.redfin.com/WA/Freeland/1480-Rolling-Rd-98249/home/16696237,NWMLS,1592207,N,Y,47.976813,-122.5355308
MLS Listing,,Single Family Residential,8045 Possession Rd,Clinton,WA,98236,2350000,3,2.5,Possession,4642,92138,1998,166,506,30,Active,,,http://www.redfin.com/WA/Clinton/8045-Possession-Rd-98236/home/16689660,NWMLS,1580917,N,Y,47.9191024,-122.3795931
MLS Listing,,Single Family Residential,2436 Matsen Ln,Oak Harbor,WA,98277,925000,2,2.25,Strawberry Point,2499,475930,1981,166,370,,Active,,,http://www.redfin.com/WA/Oak-Harbor/2436-E-Matsen-Ln-98277/home/161207797,NWMLS,1591163,N,Y,48.2972357,-122.5074739
MLS Listing,,Vacant Land,Dove Dr,Camano Island,WA,98282,199000,0,,Camano Ridge,,424842,,171,,,Active,,,http://www.redfin.com/WA/CAMANO-ISLAND/DOVE-DR-98282/home/22891505,NWMLS,1588495,N,Y,48.198737,-122.517495
MLS Listing,,Vacant Land,000 SR 525,Coupeville,WA,98239,139000,0,,Central Whidbey,,346187,,180,,,Active,,,http://www.redfin.com/WA/Coupeville/Unknown-98239/home/171258937,NWMLS,1585485,N,Y,48.138855,-122.589814
MLS Listing,,Vacant Land,El Cine,Coupeville,WA,98239,130000,0,,Coupeville,,30553,,187,,,Active,,,http://www.redfin.com/WA/Unknown/El-Cine-St-98239/home/146791357,NWMLS,1584358,N,Y,48.23609,-122.75518
MLS Listing,,Single Family Residential,7527 Maxwelton Beach Ln,Clinton,WA,98236,350000,1,0.75,Maxwelton,504,5004,1947,187,694,,Active,,,http://www.redfin.com/WA/Clinton/7527-Maxwelton-Beach-Ln-98236/home/16704651,NWMLS,1584162,N,Y,47.9380415,-122.4439071
MLS Listing,,Vacant Land,23 Thompson Rd,Langley,WA,98260,3588000,0,,Langley,,3833280,,188,,,Active,,,http://www.redfin.com/WA/Unknown/23-Thompson-Rd-98260/home/167418566,NWMLS,1582614,N,Y,48.015175,-122.482531
MLS Listing,,Single Family Residential,1180 Elwha St,Oak Harbor,WA,98277,415000,4,2,City Of Oak Harbor,2190,9481,1958,189,189,,Active,,,http://www.redfin.com/WA/Oak-Harbor/1180-NW-Elwha-St-98277/home/16682690,NWMLS,1568581,N,Y,48.3084868,-122.6648041
MLS Listing,,Vacant Land,2nd St,Langley,WA,98260,250000,0,,Langley,,7800,,191,,,Active,,,http://www.redfin.com/WA/Langley/Second-St-98260/home/59700465,NWMLS,1581613,N,Y,48.040315,-122.413928
MLS Listing,,Vacant Land,176 Blazer Ct,Oak Harbor,WA,98277,169000,0,,Oak Harbor,,217800,,195,,,Active,,,http://www.redfin.com/WA/Oak-Harbor/176-E-3750th-N-98277/home/16709389,NWMLS,1576505,N,Y,48.344581,-122.605092
MLS Listing,,Vacant Land,4487 Fustu Ln,Greenbank,WA,98253,375000,0,,Greenbank,,111949,,198,,,Active,,,http://www.redfin.com/WA/Greenbank/4487-Fustu-Ln-98253/home/161206694,NWMLS,1578516,N,Y,48.047776,-122.539143
MLS Listing,,Vacant Land,4481 Fustu Ln,Greenbank,WA,98253,325000,0,,Greenbank,,27600,,198,,,Active,,,http://www.redfin.com/WA/Greenbank/4481-Fustu-Ln-98253/home/161183508,NWMLS,1578486,N,Y,48.048484,-122.53942
MLS Listing,,Vacant Land,111 El Mar,Coupeville,WA,98239,85000,0,,Coupeville,,33600,,200,,,Active,,,http://www.redfin.com/WA/Unknown/111-El-Mar-St-98239/home/171281434,NWMLS,1578518,N,Y,48.235557,-122.75438
MLS Listing,,Vacant Land,4204 S Camano,Camano Island,WA,98282,229000,0,,South Camano,,219542,,208,,,Active,,,http://www.redfin.com/WA/Camano/4204-S-Camano-Dr-98282/home/22886569,NWMLS,1570740,N,Y,48.057136,-122.362441
MLS Listing,,Single Family Residential,980 Carl Ave,Oak Harbor,WA,98277,204250,3,1,Oak Harbor,1728,19138,1962,213,118,60,Active,,,http://www.redfin.com/WA/Oak-Harbor/980-Carl-Ave-98277/home/16688827,NWMLS,1559613,N,Y,48.245885,-122.702819
MLS Listing,,Vacant Land,State Route 20,Oak Harbor,WA,98277,1297000,0,,City Of Oak Harbor,,543193,,214,,,Active,,,http://www.redfin.com/WA/Oak-Harbor/Unknown-Unknown/home/160613119,NWMLS,1571615,N,Y,48.314507,-122.632895
MLS Listing,,Single Family Residential,1188 Village Heights Pl,Camano Island,WA,98282,859000,3,2.5,Country Club,2051,104623,2020,218,419,,Active,,,http://www.redfin.com/WA/Stanwood/1188-Village-Heights-PL-98282/home/170665371,NWMLS,1567839,N,Y,48.159846,-122.476401
MLS Listing,,Single Family Residential,1177 Village Heights Pl,Camano Island,WA,98282,889000,3,2,Country Club,2063,104575,2020,218,431,,Active,,,http://www.redfin.com/WA/Stanwood/1177-Village-Heights-PL-98282/home/170665344,NWMLS,1567837,N,Y,48.159608,-122.477881
MLS Listing,,Single Family Residential,1166 Village Heights Pl,Camano Island,WA,98282,949000,3,2.5,Country Club,2498,104646,2020,218,380,,Active,,,http://www.redfin.com/WA/Stanwood/1166-Village-Heights-PL-98282/home/170665324,NWMLS,1567835,N,Y,48.160087,-122.478282
MLS Listing,,Single Family Residential,1155 Village Heights Pl,Camano Island,WA,98282,919000,3,2.5,Country Club,2182,104615,2020,218,421,,Active,,,http://www.redfin.com/WA/Stanwood/1155-Village-Heights-PL-98282/home/170665308,NWMLS,1567832,N,Y,48.160417,-122.478669
MLS Listing,,Single Family Residential,1122 Village Heights Pl,Camano Island,WA,98282,889000,3,2,Country Club,2063,104618,2020,218,431,,Active,,,http://www.redfin.com/WA/Stanwood/1122-Village-Heights-PL-98282/home/170665263,NWMLS,1567830,N,Y,48.161708,-122.479475
MLS Listing,,Single Family Residential,1111 Village Heights Pl,Camano Island,WA,98282,859000,3,2.5,Country Club,2051,104799,2020,218,419,,Active,,,http://www.redfin.com/WA/Stanwood/1111-Village-Heights-PL-98282/home/170665247,NWMLS,1567829,N,Y,48.162095,-122.479769
MLS Listing,,Vacant Land,23082 SR 525,Greenbank,WA,98253,60000,0,,Greenbank,,93723,,225,,,Active,,,http://www.redfin.com/WA/Greenbank/23082-WA-525-98253/home/103687763,NWMLS,1564970,N,Y,48.0699573,-122.5667394
MLS Listing,,Vacant Land,SR 525,Greenbank,WA,98253,205000,0,,Greenbank,,425581,,230,,,Active,,,http://www.redfin.com/WA/Greenbank/Unknown-98253/home/160470814,NWMLS,1564809,N,Y,48.057602,-122.56931
MLS Listing,,Vacant Land,Fish Rd,Freeland,WA,98249,17000,0,,Freeland,,15683,,232,,,Active,,,http://www.redfin.com/WA/FREELAND/FISH-RD-98249/home/22880734,NWMLS,1563376,N,Y,48.006293,-122.532177
MLS Listing,,Vacant Land,9 N Harrington Lagoon Rd,Coupeville,WA,98239,119000,0,,Harrington Lagoon,,28456,,233,,,Active,,,http://www.redfin.com/WA/Coupeville/9-N-Harrington-Lagoon-Rd-98239/home/22892429,NWMLS,1559040,N,Y,48.210365,-122.615074
MLS Listing,,Vacant Land,2914 Newell Rd,Camano Island,WA,98282,187500,0,,Sierra Vista,,10219,,233,,,Active,,,http://www.redfin.com/WA/Camano-Island/2914-Newell-Rd-98282/home/160486490,NWMLS,1563248,N,Y,48.1044869,-122.4048419
MLS Listing,,Townhouse,1757 Compass Blvd,Freeland,WA,98249,346000,2,1.75,Freeland,1058,,2001,253,327,340,Active,,,http://www.redfin.com/WA/Freeland/1757-Alliance-Ave-98249/home/146303593,NWMLS,1554376,N,Y,48.0108327,-122.5200224
MLS Listing,,Vacant Land,Parcel B E Welcher Rd,Coupeville,WA,98239,128000,0,,Race Lagoon,,328442,,257,,,Active,,,http://www.redfin.com/WA/Unknown/Parcel-B-W-Welcher-Rd-98239/home/160431955,NWMLS,1550864,N,Y,48.188745,-122.613825
MLS Listing,,Vacant Land,NHN Dove Dr,Camano Island,WA,98282,249000,0,,Camano Ridge,,581962,,265,,,Active,,,http://www.redfin.com/WA/Camano/NHN-S-Dove-Dr-98282/home/170234052,NWMLS,1552691,N,Y,48.20039,-122.515955
MLS Listing,,Vacant Land,Goldie Rd,Oak Harbor,WA,98277,85000,0,,Oak Harbor,,217548,,266,,,Active,,,http://www.redfin.com/WA/OAK-HARBOR/Unknown-98277/home/161182573,NWMLS,1553167,N,Y,48.316229,-122.651672
MLS Listing,,Vacant Land,1215 SW Swantown Ave,Oak Harbor,WA,98277,1800000,0,,Oak Harbor,,243065,,267,,,Active,,,http://www.redfin.com/WA/Oak-Harbor/1215-SW-Swantown-Ave-98277/home/16711939,NWMLS,1549892,N,Y,48.28558,-122.67348
MLS Listing,,Vacant Land,Old Cremona,Camano Island,WA,98282,80000,0,,Camano Island,,108973,,286,,,Active,,,http://www.redfin.com/WA/CAMANO-ISLAND/Unknown-98282/home/22888644,NWMLS,1548814,N,Y,48.075116,-122.382838
MLS Listing,,Vacant Land,Sunset Vista Ln,Clinton,WA,98236,125000,0,,Possession Point,,30187,,289,,,Active,,,http://www.redfin.com/WA/CLINTON/SUNSET-VISTA-LN-98236/home/22886294,NWMLS,1548180,N,Y,47.910524,-122.390202
MLS Listing,,Vacant Land,Freund St,Oak Harbor,WA,98277,119500,0,,City Of Oak Harbor,,13693,,292,,,Active,,,http://www.redfin.com/WA/Oak-Harbor/871-Park-Ave-98277/home/16686241,NWMLS,1548068,N,Y,48.2422358,-122.6719133
MLS Listing,,Single Family Residential,7593 Jewett Rd,Clinton,WA,98236,1600000,3,2,Clinton,1963,268765,2007,298,815,,Active,,,http://www.redfin.com/WA/Clinton/7593-Jewett-Rd-98236/home/59699829,NWMLS,1546719,N,Y,47.9362061,-122.3888359
MLS Listing,,Vacant Land,NHN Polnell Rd,Oak Harbor,WA,98277,95000,0,,City Of Oak Harbor,,69356,,303,,,Active,,,http://www.redfin.com/WA/Oak-Harbor/NHN-Polnell-Rd-98277/home/147010147,NWMLS,1544710,N,Y,48.285084,-122.53398
MLS Listing,,Vacant Land,NE Pennington Loop,Coupeville,WA,98239,93000,0,,Coupeville,,15559,,305,,,Active,,,http://www.redfin.com/WA/COUPEVILLE/NE-PENNINGTON-LOOP-98239/home/22893348,NWMLS,1544993,N,Y,48.215952,-122.670999
MLS Listing,,Vacant Land,Lot A Sandy Point Rd,Langley,WA,98260,390000,0,,Langley,,175921,,309,,,Active,,,http://www.redfin.com/WA/Langley/Lot-A-Sandy-Point-Rd-98260/home/169963634,NWMLS,1544349,N,Y,48.031793,-122.393548
MLS Listing,,Vacant Land,Lot B Sandy Point Rd,Langley,WA,98260,390000,0,,Langley,,175921,,309,,,Active,,,http://www.redfin.com/WA/Langley/Lot-B-Sandy-Point-Rd-98260/home/95711597,NWMLS,1544355,N,Y,48.031802,-122.392767
MLS Listing,,Vacant Land,Reindeer Rd,Freeland,WA,98249,40000,0,,Holmes Harbor (Gyc),,7955,,317,,,Active,,,http://www.redfin.com/WA/Freeland/Reindeer-Rd-98249/home/144438109,NWMLS,1542028,N,Y,48.033623,-122.548182
MLS Listing,,Vacant Land,Keystone Ave,Coupeville,WA,98239,119000,0,,Admirals Cove,,7779,,317,,,Active,,,http://www.redfin.com/WA/COUPEVILLE/KEYSTONE-AVE-98239/home/16704374,NWMLS,1542079,N,Y,48.161126,-122.619952
MLS Listing,,Vacant Land,5 Village Heights Pl,Camano Island,WA,98282,240000,0,,Country Club,,104615,,318,,,Active,,,http://www.redfin.com/WA/Stanwood/5-Village-Heights-PL-98282/home/171582949,NWMLS,1540709,N,Y,48.160488,-122.478501
MLS Listing,,Vacant Land,6 Village Heights Pl,Camano Island,WA,98282,230000,0,,Country Club,,104646,,318,,,Active,,,http://www.redfin.com/WA/Stanwood/6-Village-Heights-PL-98282/home/169876882,NWMLS,1540710,N,Y,48.160178,-122.478163
MLS Listing,,Vacant Land,7 Village Heights Pl,Camano Island,WA,98282,240000,0,,Country Club,,104575,,318,,,Active,,,http://www.redfin.com/WA/Stanwood/7-Village-Heights-PL-98282/home/169876881,NWMLS,1540712,N,Y,48.159754,-122.47754
MLS Listing,,Vacant Land,8 Village Heights Pl,Camano Island,WA,98282,235000,0,,Country Club,,104623,,318,,,Active,,,http://www.redfin.com/WA/Stanwood/8-Village-Heights-PL-98282/home/169876880,NWMLS,1540713,N,Y,48.159521,-122.476875
MLS Listing,,Vacant Land,1 Village Heights Pl,Camano Island,WA,98282,250000,0,,Country Club,,104799,,318,,,Active,,,http://www.redfin.com/WA/Stanwood/1-Village-Heights-PL-98282/home/169876879,NWMLS,1540702,N,Y,48.162135,-122.47973
MLS Listing,,Vacant Land,2 Village Heights Pl,Camano Island,WA,98282,250000,0,,Country Club,,104618,,318,,,Active,,,http://www.redfin.com/WA/Stanwood/2-Village-Heights-PL-98282/home/169876878,NWMLS,1540704,N,Y,48.161754,-122.479388
MLS Listing,,Vacant Land,3235 Tyee Ln,Camano Island,WA,98282,250000,0,,Tyee Beach,,133970,,320,,,Active,,,http://www.redfin.com/WA/Camano/3235-1500-E-98282/home/16704913,NWMLS,1541888,N,Y,48.0921518,-122.3924907
MLS Listing,,Vacant Land,Shore Meadows Rd,Freeland,WA,98249,375000,0,,Freeland,,839709,,323,,,Active,,,http://www.redfin.com/WA/FREELAND/SHORE-MEADOW-RD-98249/home/22882189,NWMLS,1540237,N,Y,48.017119,-122.569359
MLS Listing,,Mobile/Manufactured Home,1711 Lake Dr,Camano Island,WA,98282,348890,2,1.5,Camano Island,1248,25185,1975,327,280,64,Active,,,http://www.redfin.com/WA/Camano/1711-Lake-Dr-98282/home/16694116,NWMLS,1539765,N,Y,48.152915,-122.486847
MLS Listing,,Vacant Land,Delphinium Dr,Coupeville,WA,98239,75000,0,,Coupeville,,10632,,330,,,Active,,,http://www.redfin.com/WA/COUPEVILLE/Unknown-98239/home/22889455,NWMLS,1533551,N,Y,48.114595,-122.570908
MLS Listing,,Vacant Land,72 Lot Deception,Oak Harbor,WA,98277,53500,0,,Deception Park View,,7922,,355,,,Active,,,http://www.redfin.com/WA/Unknown/72-Lot-Deception-Cir-98277/home/169403754,NWMLS,1527752,N,Y,48.388052,-122.648714
MLS Listing,,Vacant Land,Lake Dr,Camano Island,WA,98282,129000,0,,Lost Lake,,13200,,363,,,Active,,,http://www.redfin.com/WA/CAMANO-ISLAND/LAKE-DR-98282/home/22892212,NWMLS,1527146,N,Y,48.155895,-122.488044
MLS Listing,,Vacant Land,4306 Quaternary Rd,Clinton,WA,98236,285000,0,,Possession Point,,43996,,363,,,Active,,,http://www.redfin.com/WA/Clinton/4306-Quaternary-Ln-98236/home/21507340,NWMLS,1525448,N,Y,47.9193582,-122.3807293
MLS Listing,,Vacant Land,1200 Beach Dr,Camano Island,WA,98282,799000,0,,Country Club,,201672,,364,,,Active,,,http://www.redfin.com/WA/Camano/1200-Beach-Dr-98282/home/113649944,NWMLS,1526642,N,Y,48.1677557,-122.479172
MLS Listing,,Vacant Land,1137 Viewpoint Dr,Oak Harbor,WA,98277,288800,0,,Polnell Shores,,93904,,366,,,Active,,,http://www.redfin.com/WA/Oak-Harbor/1137-E-Viewpoint-Dr-98277/home/169234930,NWMLS,1523129,N,Y,48.2845683,-122.5531631
MLS Listing,,Single Family Residential,1928 Lancaster,Freeland,WA,98249,350000,2,0.75,Freeland,912,48300,1951,380,384,,Active,,,http://www.redfin.com/WA/Freeland/1928-Lancaster-Rd-98249/home/16709626,NWMLS,1519581,N,Y,47.9946037,-122.5121551
MLS Listing,,Vacant Land,Hunt Rd,Oak Harbor,WA,98277,156500,0,,Oak Harbor,,321908,,399,,,Active,,,http://www.redfin.com/WA/OAK-HARBOR/HUNT-RD-98277/home/22879386,NWMLS,1511043,N,Y,48.321093,-122.605651
MLS Listing,,Vacant Land,21 Inverness Way,Coupeville,WA,98239,85000,0,,Teronda,,5663,,400,,,Active,,,http://www.redfin.com/WA/Unknown/21-Inverness-Way-98239/home/168793494,NWMLS,1511480,N,Y,48.131685,-122.599051
MLS Listing,,Vacant Land,Lot 1 Ellwood Dr,Coupeville,WA,98239,145000,0,,Coupeville,,222156,,405,,,Active,,,http://www.redfin.com/WA/Coupeville/Lot-1-Ellwood-Dr-98239/home/168702127,NWMLS,1508295,N,Y,48.120749,-122.567271
MLS Listing,,Vacant Land,Lot 2 Ellwood Dr,Coupeville,WA,98239,145000,0,,Coupeville,,222156,,405,,,Active,,,http://www.redfin.com/WA/Coupeville/Lot-2-Ellwood-Dr-98239/home/168702125,NWMLS,1508316,N,Y,48.122324,-122.567442
MLS Listing,,Single Family Residential,1518 Roy Rd,Freeland,WA,98249,325000,2,1,Freeland,980,8276,1959,411,332,,Active,,,http://www.redfin.com/WA/Freeland/1518-E-Roy-Rd-98249/home/16711823,NWMLS,1505599,N,Y,47.9890857,-122.5332692
MLS Listing,,Vacant Land,S Evenstar Ln,Freeland,WA,98247,245000,0,,Freeland,,217800,,426,,,Active,,,http://www.redfin.com/WA/Freeland/S-Evenstar-LN-98247/home/168164242,NWMLS,1495740,N,Y,48.040493,-122.54928
MLS Listing,,Vacant Land,Yvonne Ave,Oak Harbor,WA,98277,150000,0,,Ault Field,,217800,,428,,,Active,,,http://www.redfin.com/WA/OAK-HARBOR/Unknown-98277/home/22887199,NWMLS,1496716,N,Y,48.323117,-122.669989
MLS Listing,,Vacant Land,Lot 12 Twin Oaks Ln,Freeland,WA,98249,44000,0,,Freeland,,7496,,439,,,Active,,,http://www.redfin.com/WA/Freeland/Lot-12-Twin-Oaks-Ln-98249/home/171582408,NWMLS,1490914,N,Y,48.018833,-122.5135
MLS Listing,,Vacant Land,1805 Twin Oaks Ln,Freeland,WA,98249,44000,0,,Freeland,,7496,,443,,,Active,,,http://www.redfin.com/WA/Freeland/1805-Twin-Oaks-Ln-98249/home/22892314,NWMLS,1483558,N,Y,48.018831,-122.517427
MLS Listing,,Vacant Land,N Oak Harbor Rd,Oak Harbor,WA,98277,75000,0,,City Of Oak Harbor,,77537,,450,,,Active,,,http://www.redfin.com/WA/OAK-HARBOR/N-OAK-HARBOR-RD-98277/home/59700104,NWMLS,1485321,N,Y,48.310867,-122.658026
MLS Listing,,Vacant Land,Sunrise Blvd,Camano Island,WA,98282,415000,0,,North End,,310008,,450,,,Active,,,http://www.redfin.com/WA/Camano/N-Sunrise-Blvd-98282/home/169951669,NWMLS,1482336,N,Y,48.220579,-122.45562
MLS Listing,,Single Family Residential,,Freeland,WA,98249,5500000,1,2.25,Freeland,4848,1635678,2007,464,1134,,Active,,,http://www.redfin.com/WA/Freeland/Undisclosed-address-Unknown/home/167129698,NWMLS,1479465,N,Y,48.027774,-122.526157
MLS Listing,,Vacant Land,3696 Hoffman Rd,Oak Harbor,WA,98277,149000,0,,Oak Harbor,,435600,,474,,,Active,,,http://www.redfin.com/WA/Oak-Harbor/3696-N-Hoffman-Rd-98277/home/22887227,NWMLS,1461875,N,Y,48.343415,-122.6339381
MLS Listing,,Vacant Land,La Plazo St,Coupeville,WA,98239,7500,0,,Sierra,,7425,,485,,,Active,,,http://www.redfin.com/WA/COUPEVILLE/LA-PLAZO-ST-98239/home/22881331,NWMLS,1467245,N,Y,48.233067,-122.752699
MLS Listing,,Single Family Residential,1095 Burchell Rd,Coupeville,WA,98239,1300000,3,2.5,Coupeville,2786,1037006,1982,485,467,,Active,,,http://www.redfin.com/WA/Coupeville/1095-Burchell-Rd-98239/home/146444705,NWMLS,1468022,N,Y,48.1946404,-122.6753691
MLS Listing,,Vacant Land,2519 San Juan St,Coupeville,WA,98239,7500,0,,Sierra,,7200,,485,,,Active,,,http://www.redfin.com/WA/Coupeville/2519-San-Juan-St-98239/home/22886428,NWMLS,1467190,N,Y,48.233404,-122.75269
MLS Listing,,Vacant Land,Cultus Bay Rd,Clinton,WA,98236,170000,0,,Clinton,,95832,,491,,,Active,,,http://www.redfin.com/WA/CLINTON/CULTUS-BAY-RD-98236/home/22878640,NWMLS,1451124,N,Y,47.976903,-122.405913
MLS Listing,,Vacant Land,1 Lot 1 Island Ridge Way,Coupeville,WA,98239,123000,0,,Coupeville,,270943,,558,,,Active,,,http://www.redfin.com/WA/Unknown/1-Lot-1-Island-Ridge-Way-98239/home/160726068,NWMLS,1426333,N,Y,48.136571,-122.586821
MLS Listing,,Vacant Land,4985 Bakerview Rd,Oak Harbor,WA,98277,195000,0,,North Whidbey,,124604,,565,,,Active,,,http://www.redfin.com/WA/Oak-Harbor/4985-Bakerview-Rd-98277/home/103767228,NWMLS,1423508,N,Y,48.3938115,-122.5907929
MLS Listing,,Vacant Land,NE Koetje St,Oak Harbor,WA,98277,105000,0,,City Of Oak Harbor,,219000,,575,,,Active,,,http://www.redfin.com/WA/OAK-HARBOR/NE-KOETJE-ST-98277/home/148463283,NWMLS,1418861,N,Y,48.305386,-122.646966
MLS Listing,,Vacant Land,23200 State Road 525,Greenbank,WA,98253,129000,0,,Greenbank,,428264,,607,,,Active,,,http://www.redfin.com/WA/Greenbank/23200-Washington-525-98253/home/160369556,NWMLS,1407440,N,Y,48.0717211,-122.5654596
MLS Listing,,Vacant Land,Beacon View Dr,Oak Harbor,WA,98277,200000,0,,Dugualla Bay,,61855,,637,,,Active,,,http://www.redfin.com/WA/OAK-HARBOR/BEACON-VIEW-DR-98277/home/22880771,NWMLS,1395773,N,Y,48.351463,-122.580831
MLS Listing,,Vacant Land,SR 525,Coupeville,WA,98239,179000,0,,Central Whidbey,,622908,,687,,,Active,,,http://www.redfin.com/WA/Coupeville/Unknown-98239/home/148120756,NWMLS,1385149,N,Y,48.140186,-122.590402
MLS Listing,,Vacant Land,NE Goldie Rd,Oak Harbor,WA,98277,249000,0,,City Of Oak Harbor,,393782,,716,,,Active,,,http://www.redfin.com/WA/OAK-HARBOR/Unknown-98277/home/59699719,NWMLS,1375570,N,Y,48.315361,-122.650319
MLS Listing,,Vacant Land,1048 Malvern Hills Dr,Camano Island,WA,98282,135000,0,,Brentwood,,16174,,743,,,Active,,,http://www.redfin.com/WA/Camano/1048-Malvern-Hills-Dr-98282/home/35652931,NWMLS,1363016,N,Y,48.2494333,-122.511262
MLS Listing,,Vacant Land,1 E Forgotten Ln,Clinton,WA,98236,29950,0,,Clinton,,15340,,748,,,Active,,,http://www.redfin.com/WA/Unknown/1-E-Forgotten-Ln-98236/home/147047771,NWMLS,1360045,N,Y,47.979757,-122.372458
MLS Listing,,Vacant Land,E Piper Trl,Oak Harbor,WA,98277,85000,0,,Oak Harbor,,217800,,757,,,Active,,,http://www.redfin.com/WA/Oak-Harbor/E-Piper-Trl-98277/home/171583000,NWMLS,1355306,N,Y,48.32341,-122.59275
MLS Listing,,Vacant Land,E Forgotten Ln,Clinton,WA,98236,98000,0,,Clinton,,37233,,824,,,Active,,,http://www.redfin.com/WA/Clinton/E-Forgotten-Ln-98236/home/146134444,NWMLS,1303028,N,Y,47.979656,-122.373285
MLS Listing,,Single Family Residential,300 Azalea Pl,Oak Harbor,WA,98277,340000,0,,North Whidbey,208,434143,2009,824,1635,,Active,,,http://www.redfin.com/WA/Oak-Harbor/300-4400-N-98277/home/16682318,NWMLS,1319148,N,Y,48.3701339,-122.6299656
MLS Listing,,Vacant Land,Crosby Rd,Oak Harbor,WA,98277,149980,0,,City Of Oak Harbor,,162479,,965,,,Active,,,http://www.redfin.com/WA/OAK-HARBOR/Unknown-98277/home/22879874,NWMLS,1242588,N,Y,48.310382,-122.701231
MLS Listing,,Vacant Land,Bonnie View Acres Rd Lot C,Oak Harbor,WA,98277,263500,0,,Oak Harbor,,191664,,1085,,,Active,,,http://www.redfin.com/WA/Oak-Harbor/Bonnie-View-Acres-Rd-98277/unit-C/home/144188004,NWMLS,1205603,N,Y,48.259972,-122.656418
MLS Listing,,Vacant Land,Bonnie View Acres Rd Lot D,Oak Harbor,WA,98277,258500,0,,Oak Harbor,,196455,,1085,,,Active,,,http://www.redfin.com/WA/Oak-Harbor/Bonnie-View-Acres-Rd-98277/unit-D/home/144188003,NWMLS,1205613,N,Y,48.261146,-122.656363
MLS Listing,,Vacant Land,Bonnie View Acres Rd Lot E,Oak Harbor,WA,98277,229500,0,,Oak Harbor,,197762,,1085,,,Active,,,http://www.redfin.com/WA/Oak-Harbor/Bonnie-View-Acres-Rd-98277/unit-E/home/144188002,NWMLS,1205622,N,Y,48.26239,-122.656298
MLS Listing,,Vacant Land,Bonnie View Acres Rd Lot F,Oak Harbor,WA,98277,175000,0,,Oak Harbor,,178596,,1085,,,Active,,,http://www.redfin.com/WA/Oak-Harbor/Bonnie-View-Acres-Rd-98277/unit-F/home/144188001,NWMLS,1205637,N,Y,48.263247,-122.656341
MLS Listing,,Vacant Land,111 N Sunrise Blvd,Camano Island,WA,98282,399000,0,,Camano Sunrise,,438649,,1110,,,Active,,,http://www.redfin.com/WA/Camano/111-N-Sunrise-Blvd-98282/home/143827854,NWMLS,1193210,N,Y,48.2149703,-122.4567261
MLS Listing,,Single Family Residential,119 & 121 N 6 th Ave SW,Langley,WA,98260,749000,5,2,Langley,1962,63933,1975,1166,382,,Active,,,http://www.redfin.com/WA/Langley/119-121-N-6-th-AVE-SW-98260/home/146084410,NWMLS,1166294,N,Y,48.035724,-122.406286
MLS Listing,,Vacant Land,LOT 1-2 Seacrest Ln,Coupeville,WA,98239,69477,0,,Coupeville,,40703,,1482,,,Active,,,http://www.redfin.com/WA/Unknown/LOT-1-2-S-Seacrest-Ln-98239/home/108986391,NWMLS,1025900,N,Y,48.151815,-122.604516
MLS Listing,,Vacant Land,S Smugglers Cove Rd,Greenbank,WA,98253,475000,0,,Greenbank,,1051103,,1516,,,Active,,,http://www.redfin.com/WA/Greenbank/S-Smugglers-Cove-Rd-98253/home/146407665,NWMLS,1010785,N,Y,48.094958,-122.598084
MLS Listing,,Single Family Residential,509 Meadowview Ln,Oak Harbor,WA,98277,1339900,4,4.75,North Whidbey,5411,871200,1992,1555,248,,Active,,,http://www.redfin.com/WA/Oak-Harbor/509-Meadowview-Ln-98277/home/16708398,NWMLS,968391,N,Y,48.333719,-122.585415
MLS Listing,,Vacant Land,La Cana,Coupeville,WA,98239,75000,0,,Coupeville,,33600,,1564,,,Active,,,http://www.redfin.com/WA/Unknown/La-Cana-St-98239/home/144091078,NWMLS,959640,N,Y,48.235771,-122.753565
MLS Listing,,Vacant Land,El Toro,Coupeville,WA,98239,75000,0,,Coupeville,,16343,,1564,,,Active,,,http://www.redfin.com/WA/Unknown/El-Toro-St-98239/home/113068742,NWMLS,962747,N,Y,48.23665,-122.75407
MLS Listing,,Vacant Land,1 N Pheasant Run Rd,Coupeville,WA,98239,174900,0,,Coupeville,,67518,,1636,,,Active,,,http://www.redfin.com/WA/Coupeville/1-N-Pheasant-Run-Rd-98239/home/104459095,NWMLS,918935,N,Y,48.215656,-122.6246661
MLS Listing,,Vacant Land,145 x West Beach Rd,Oak Harbor,WA,98277,175000,0,,West Beach,,24883,,2241,,,Active,,,http://www.redfin.com/WA/Unknown/145-x-W-Beach-Rd-98277/home/57082538,NWMLS,678511,N,Y,48.262867,-122.749329
MLS Listing,,Vacant Land,Dugualla (lot 2) Rd,Oak Harbor,WA,98277,649900,0,,Dugualla Bay,,399880,,2870,,,Active,,,http://www.redfin.com/WA/Unknown/Dugualla-Rd-98277/home/145749311,NWMLS,425707,N,Y,48.351121,-122.585978
