SALE TYPE,SOLD DATE,PROPERTY TYPE,ADDRESS,CITY,STATE OR PROVINCE,ZIP OR POSTAL CODE,PRICE,BEDS,BATHS,LOCATION,SQUARE FEET,LOT SIZE,YEAR BUILT,DAYS ON MARKET,$/SQUARE FEET,HOA/MONTH,STATUS,NEXT OPEN HOUSE START TIME,NEXT OPEN HOUSE END TIME,URL (SEE http://www.redfin.com/buy-a-home/comparative-market-analysis FOR INFO ON PRICING),SOURCE,MLS#,FAVORITE,INTERESTED,LATITUDE,LONGITUDE
MLS Listing,,Single Family Residential,8129 NE Blakely Heights Ct,Bainbridge Island,WA,98110,928000,3,3,Bainbridge Island,2290,37026,1999,3,405,,Active,,,http://www.redfin.com/WA/Bainbridge-Island/8129-NE-Blakely-Heights-Ct-98110/home/2425062,NWMLS,1669307,N,Y,47.6053091,-122.542409
MLS Listing,,Single Family Residential,10585 NE Manor Ln,Bainbridge Island,WA,98110,839900,3,2.5,Bainbridge Island,2548,33977,1988,8,330,,Active,,,http://www.redfin.com/WA/Bainbridge-Island/10585-NE-Manor-Ln-98110/home/2148160,NWMLS,1666413,N,Y,47.6886403,-122.5077612
MLS Listing,,Single Family Residential,926 Washington Ave,Bremerton,WA,98337,510000,3,2,Bremerton,1754,3920,1904,40,291,,Active,,,http://www.redfin.com/WA/Bremerton/926-Washington-Ave-98337/home/39543657,NWMLS,1649606,N,Y,47.5703811,-122.6236008
MLS Listing,,Single Family Residential,24480 Jefferson Pl NE,Kingston,WA,98346,749000,2,2,Kingston,2064,21344,1982,54,363,,Active,,,http://www.redfin.com/WA/Kingston/24480-Jefferson-Pl-NE-98346/home/2307116,NWMLS,1643017,N,Y,47.7846577,-122.4935885
MLS Listing,,Single Family Residential,1813 NW Forest Creek Dr,Silverdale,WA,98383,349000,3,1,Silverdale,1108,12197,1971,1,315,,Active,,,http://www.redfin.com/WA/Silverdale/1813-NW-Forest-Creek-Dr-98383/home/2386108,NWMLS,1670705,N,Y,47.6824643,-122.6748227
MLS Listing,,Single Family Residential,4984 Bridle Tree Dr NW,Bremerton,WA,98312,985000,3,2.75,Seabeck,4062,219107,1999,1,242,,Active,,,http://www.redfin.com/WA/Bremerton/4984-Bridle-Tree-Dr-NW-98312/home/2290991,NWMLS,1670996,N,Y,47.6144419,-122.816317
MLS Listing,,Vacant Land,4418 Waterman Ridge Ln E,Port Orchard,WA,98366,125000,0,,Waterman,,42689,,1,,,Active,,,http://www.redfin.com/WA/Port-Orchard/4418-Waterman-Ridge-Ln-E-98366/home/173324573,NWMLS,1670924,N,Y,47.571056,-122.578767
MLS Listing,,Single Family Residential,9651 Phillips Rd SE,Port Orchard,WA,98367,458999,3,2.5,Port Orchard,2190,16553,2005,1,210,,Active,,,http://www.redfin.com/WA/Port-Orchard/9651-Phillips-Rd-SE-98367/home/2538811,NWMLS,1671177,N,Y,47.4633463,-122.5901843
MLS Listing,,Single Family Residential,1814 Perry Ave,Bremerton,WA,98310,319950,2,1,Manette,1028,6098,1940,1,311,,Active,,,http://www.redfin.com/WA/Bremerton/1814-Perry-Ave-98310/home/2328382,NWMLS,1670750,N,Y,47.5766829,-122.6134795
MLS Listing,,Single Family Residential,716 & 718 Park Ave,Bremerton,WA,98337,300000,4,1.75,Bremerton,1692,8276,1912,1,177,,Active,,,http://www.redfin.com/WA/Bremerton/718-Park-Ave-98337/home/173324067,NWMLS,1667309,N,Y,47.5686398,-122.6298619
MLS Listing,,Single Family Residential,4108 Bledsoe Ave,Bremerton,WA,98310,260000,3,1.5,East Bremerton,1405,8276,1960,1,185,,Active,,,http://www.redfin.com/WA/Bremerton/4108-Bledsoe-Ave-98310/home/2336442,NWMLS,1667878,N,Y,47.5987416,-122.6348488
MLS Listing,,Single Family Residential,10500 Lathrop Ln NW,Silverdale,WA,98383,615000,3,3.25,Silverdale,3614,97139,1974,1,170,,Active,,,http://www.redfin.com/WA/Silverdale/10500-Lathrop-Ln-NW-98383/home/2445124,NWMLS,1667921,N,Y,47.6579038,-122.7437789
MLS Listing,,Condo/Co-op,157 Wallace Way NE,Bainbridge Island,WA,98110,412000,2,1.75,Winslow,1055,,1980,1,391,200,Active,,,http://www.redfin.com/WA/Bainbridge-Island/157-Wallace-Way-NE-98110/unit-157/home/2505547,NWMLS,1659983,N,Y,47.6323136,-122.5197753
MLS Listing,,Single Family Residential,6896 NW Lois Dr,Silverdale,WA,98383,650000,3,2.75,Silverdale,2500,98010,1996,1,260,,Active,,,http://www.redfin.com/WA/Silverdale/6896-NW-Lois-Dr-98383/home/2206822,NWMLS,1659803,N,Y,47.6569176,-122.7466578
MLS Listing,,Single Family Residential,4129 W M St,Bremerton,WA,98312,245000,2,1,Bremerton,672,5663,1942,1,365,,Active,,,http://www.redfin.com/WA/Bremerton/4129-W-M-St-98312/home/12099620,NWMLS,1669306,N,Y,47.5590393,-122.6693953
MLS Listing,,Single Family Residential,3857 Canterbury Pl SE,Port Orchard,WA,98366,350000,3,1.75,South Kitsap,1524,9583,1974,1,230,,Active,,,http://www.redfin.com/WA/Port-Orchard/3857-Canterbury-Pl-SE-98366/home/2424074,NWMLS,1670327,N,Y,47.5224188,-122.6008092
MLS Listing,,Single Family Residential,1113 NE Beaumont Ln,Bremerton,WA,98311,389500,4,2.5,Blueberry Meadows,1759,3049,2001,1,221,19,Active,,,http://www.redfin.com/WA/Bremerton/1113-NE-Beaumont-Ln-98311/home/2516387,NWMLS,1663202,N,Y,47.616572,-122.6343636
MLS Listing,,Single Family Residential,2105 Trenton Ave,Bremerton,WA,98310,374950,3,1,Manette,1668,7405,1946,1,225,,Active,,,http://www.redfin.com/WA/Bremerton/2105-Trenton-Ave-98310/home/2330139,NWMLS,1670372,N,Y,47.5793184,-122.6086319
MLS Listing,,Single Family Residential,3020 E 19th St,Bremerton,WA,98310,299000,2,1,Manette,848,7405,1942,1,353,,Active,,,http://www.redfin.com/WA/Bremerton/3020-E-19th-St-98310/home/2404888,NWMLS,1664945,N,Y,47.5776148,-122.6046626
MLS Listing,,Single Family Residential,9875 NE Nelson Hill Ln,Bainbridge Island,WA,98110,1386000,4,4.5,Bainbridge Island,2956,136778,1993,1,469,,Active,,,http://www.redfin.com/WA/Bainbridge-Island/9875-NE-Nelson-Hill-Ln-98110/home/2228235,NWMLS,1669806,N,Y,47.6514988,-122.5732295
MLS Listing,,Vacant Land,7646 Opal Ridge Ln,Bainbridge Island,WA,98110,249900,0,,Bainbridge Island,,48352,,1,,,Active,,,http://www.redfin.com/WA/Bainbridge-Island/7646-Opal-Ridge-Ln-98110/home/161095396,NWMLS,1670461,N,Y,47.615645,-122.550634
MLS Listing,,Vacant Land,4130 Lakeview Ln NW,Bremerton,WA,98312,140000,0,,Wildcat Lake,,41817,,1,,,Active,,,http://www.redfin.com/WA/Bremerton/4130-NW-Lakeview-Dr-98312/home/40280545,NWMLS,1670517,N,Y,47.5829845,-122.7059422
MLS Listing,,Vacant Land,3043 NW Bucklin Hill Rd,Silverdale,WA,98383,1925000,0,,Silverdale,,57935,,1,,,Active,,,http://www.redfin.com/WA/Silverdale/3043-NW-Bucklin-Hill-Rd-98383/home/161092064,NWMLS,1670525,N,Y,47.647929,-122.689509
MLS Listing,,Single Family Residential,7600 Tyee Way NE,Bremerton,WA,98311,390000,3,2,Central Kitsap,1858,9583,1976,1,210,,Active,,,http://www.redfin.com/WA/Bremerton/7600-Tyee-Way-NE-98311/home/2446963,NWMLS,1670440,N,Y,47.6322113,-122.5930862
MLS Listing,,Single Family Residential,5175 NW Discovery Ridge Ct,Silverdale,WA,98383,425000,3,2.25,Silverdale,1620,13068,1992,1,262,6,Active,,,http://www.redfin.com/WA/Silverdale/5175-NW-Discovery-Ridge-Ct-98383/home/2476820,NWMLS,1655671,N,Y,47.6503483,-122.7179053
MLS Listing,,Single Family Residential,2547 Vardon Cir SW,Port Orchard,WA,98367,655700,4,2.5,McCormick,3349,7123,2020,2,196,66,Active,,,http://www.redfin.com/WA/Port-Orchard/2547-Donnegal-Cir-SW-98367/home/173312370,NWMLS,1670326,N,Y,47.50638,-122.678255
MLS Listing,,Single Family Residential,26131 Bond Rd NE,Kingston,WA,98346,615000,3,,Kingston,2668,104544,1977,2,231,,Active,,,http://www.redfin.com/WA/Kingston/26131-Bond-Rd-NE-98346/home/2129049,NWMLS,1668732,N,Y,47.80274,-122.5806429
MLS Listing,,Single Family Residential,950 NW Rasmussen Ct,Poulsbo,WA,98370,418500,3,2.5,Poulsbo,2288,44867,1968,2,183,,Active,,,http://www.redfin.com/WA/Poulsbo/950-NW-Rasmussen-Ct-98370/home/11762468,NWMLS,1669261,N,Y,47.751785,-122.661342
MLS Listing,,Single Family Residential,11678 NE Tulin Rd,Kingston,WA,98346,495000,3,1.75,Jefferson Beach,1631,101495,1907,2,303,,Active,,,http://www.redfin.com/WA/Kingston/11678-Tulin-Rd-NE-98346/home/2142371,NWMLS,1651464,N,Y,47.7684286,-122.4913399
MLS Listing,,Single Family Residential,391 NW Oakmont Way,Bremerton,WA,98311,429950,3,2.75,Fairgrounds,1686,8712,1983,2,255,,Active,,,http://www.redfin.com/WA/Bremerton/391-NW-Oakmont-Way-98311/home/2455125,NWMLS,1670205,N,Y,47.6325681,-122.6540493
MLS Listing,,Single Family Residential,3100 NE Nine Boulder Dr,Poulsbo,WA,98370,950000,3,2.5,Lofall,3888,103237,2017,2,244,62,Active,,,http://www.redfin.com/WA/Poulsbo/3100-NE-Nine-Boulder-Dr-98370/home/85957494,NWMLS,1666677,N,Y,47.8484136,-122.6073947
MLS Listing,,Single Family Residential,6205 NE Center St,Suquamish,WA,98392,429000,3,2.75,Chief Seattle Park,2010,20038,1980,2,213,,Active,,,http://www.redfin.com/WA/Suquamish/6205-NE-Center-St-98392/home/2381936,NWMLS,1669913,N,Y,47.7313496,-122.5666429
MLS Listing,,Single Family Residential,1123 Puget Dr E,Port Orchard,WA,98366,469900,3,2,Manchester,1864,19602,1992,2,252,,Active,,,http://www.redfin.com/WA/Port-Orchard/1123-Puget-Dr-E-98366/home/2398678,NWMLS,1669881,N,Y,47.5449454,-122.5442757
MLS Listing,,Single Family Residential,2460 Rocky Point Rd NW,Bremerton,WA,98312,499900,2,1,Rocky Point,1248,27443,1934,2,401,,Active,,,http://www.redfin.com/WA/Bremerton/2460-Rocky-Point-Rd-NW-98312/home/2190683,NWMLS,1667072,N,Y,47.583954,-122.667347
MLS Listing,,Single Family Residential,980 Bremerton Blvd W,Bremerton,WA,98312,299000,3,2.5,West Hills,1617,3049,2010,2,185,,Active,,,http://www.redfin.com/WA/Bremerton/980-Bremerton-Blvd-98312/home/35630307,NWMLS,1669551,N,Y,47.5536003,-122.6702326
MLS Listing,,Condo/Co-op,1602 Naval Ave #34,Bremerton,WA,98312,179990,2,1.75,West Bremerton,1041,,1980,3,173,540,Active,,,http://www.redfin.com/WA/Bremerton/1602-Naval-Ave-98312/unit-34/home/79108831,NWMLS,1667867,N,Y,47.5779987,-122.6456675
MLS Listing,,Single Family Residential,2133 11th St,Bremerton,WA,98312,349900,3,2,Charleston,1900,6098,1919,4,184,,Active,,,http://www.redfin.com/WA/Bremerton/2133-11th-St-98312/home/2316993,NWMLS,1669209,N,Y,47.5707984,-122.6481032
MLS Listing,,Single Family Residential,3756 NW Linden Ln,Bremerton,WA,98312,649950,3,1.75,Bremerton,2022,93218,1960,4,321,,Active,,,http://www.redfin.com/WA/Bremerton/3756-NW-Linden-Ln-98312/home/2164315,NWMLS,1663702,N,Y,47.6028424,-122.6984731
MLS Listing,,Single Family Residential,1885 Claret Loop NW,Poulsbo,WA,98370,488000,4,2.5,Vinland,2257,4356,2015,4,216,56,Active,,,http://www.redfin.com/WA/Poulsbo/1885-Claret-Loop-NW-98370/home/75175218,NWMLS,1664813,N,Y,47.76112,-122.6713023
MLS Listing,,Condo/Co-op,165 Lovell Ave SW,Bainbridge Island,WA,98110,1559000,3,1.5,Winslow,1740,10890,1982,5,896,55,Active,,,http://www.redfin.com/WA/Bainbridge-Island/165-Lovell-Ave-SW-98110/home/12416524,NWMLS,1660749,N,Y,47.6242723,-122.5265786
MLS Listing,,Single Family Residential,14286 Pioneer Way SE,Olalla,WA,98359,619900,4,3,Olalla,3048,40946,2006,5,203,,Active,,,http://www.redfin.com/WA/Olalla/14286-Pioneer-Way-SE-98359/home/8190555,NWMLS,1669148,N,Y,47.4185522,-122.5788302
MLS Listing,,Single Family Residential,2060 NW Cowgirl Way,Poulsbo,WA,98370,799500,3,2,Poulsbo,2196,218236,2000,5,364,,Active,,,http://www.redfin.com/WA/Poulsbo/2060-NW-Cowgirl-Way-98370/home/61707104,NWMLS,1641447,N,Y,47.7729618,-122.6759031
MLS Listing,,Single Family Residential,6394 SE North St,Port Orchard,WA,98367,425000,3,1.75,Long Lake,1484,24829,1985,5,286,,Active,,,http://www.redfin.com/WA/Port-Orchard/6394-SE-North-St-98367/home/2132866,NWMLS,1669310,N,Y,47.482934,-122.5679109
MLS Listing,,Single Family Residential,954 NW Selbo Rd,Bremerton,WA,98311,400000,3,2,Central Kitsap,1458,8276,1983,5,274,,Active,,,http://www.redfin.com/WA/Bremerton/954-NW-Selbo-Rd-98311/home/2245782,NWMLS,1666897,N,Y,47.643547,-122.6678112
MLS Listing,,Single Family Residential,9801 NE Bolero Dr,Bainbridge Island,WA,98110,1368000,4,3.5,Port Blakely,3603,21344,2007,5,380,75,Active,,,http://www.redfin.com/WA/Bainbridge-Island/9801-NE-Bolero-Dr-98110/home/12226630,NWMLS,1667105,N,Y,47.5896148,-122.5181397
MLS Listing,,Single Family Residential,3718 Olympic Ct SE,Port Orchard,WA,98366,624900,3,2.5,Southworth,2398,49223,2003,5,261,,Active,,,http://www.redfin.com/WA/Port-Orchard/3718-Olympic-Ct-SE-98366/home/2431901,NWMLS,1661103,N,Y,47.5148509,-122.5072285
MLS Listing,,Mobile/Manufactured Home,4829 Estonia Ct SE,Port Orchard,WA,98367,390000,4,2,South Kitsap,1782,13068,2004,5,219,,Active,,,http://www.redfin.com/WA/Port-Orchard/4829-Estonia-Ct-SE-98367/home/2502565,NWMLS,1668609,N,Y,47.503164,-122.623745
MLS Listing,,Single Family Residential,5550 NE Totten Rd,Poulsbo,WA,98370,548000,3,1,Poulsbo,1761,207346,1916,5,311,,Active,,,http://www.redfin.com/WA/Poulsbo/5550-NE-Totten-Rd-98370/home/2237277,NWMLS,1666411,N,Y,47.7236819,-122.574965
MLS Listing,,Single Family Residential,636 Janelle Pl NW,Bainbridge Island,WA,98110,929000,3,2.5,Winslow,2436,14810,1995,5,381,,Active,,,http://www.redfin.com/WA/Bainbridge-Island/636-Janelle-Pl-NW-98110/home/2266302,NWMLS,1666902,N,Y,47.6328564,-122.5280429
MLS Listing,,Single Family Residential,1336 N Rainier Ave,Bremerton,WA,98312,374900,3,1.75,Bremerton,1780,10890,1924,5,211,,Active,,,http://www.redfin.com/WA/Bremerton/1336-N-Rainier-Ave-98312/home/2316439,NWMLS,1667980,N,Y,47.5742293,-122.6506543
MLS Listing,,Vacant Land,3323 McCary Rd SW,Port Orchard,WA,98367,150000,0,,South Kitsap,,89298,,5,,,Active,,,http://www.redfin.com/WA/Port-Orchard/3323-McCary-Rd-SW-98367/home/2418351,NWMLS,1668667,N,Y,47.5192289,-122.7009949
MLS Listing,,Single Family Residential,1499 Baker Heights (Homesite 53) Lp,Bremerton,WA,98312,489950,4,2.5,West Bremerton,2311,4936,2020,5,212,50,Active,,,http://www.redfin.com/WA/Bremerton/1499-Baker-Heights-Loop-98312/home/173289202,NWMLS,1669184,N,Y,47.5559179,-122.6991416
MLS Listing,,Single Family Residential,122 Arvon,Bremerton,WA,98312,239000,2,2,Bremerton,1372,4356,1920,5,174,,Active,,,http://www.redfin.com/WA/Bremerton/122-Arvon-Ave-98312/home/2319313,NWMLS,1669058,N,Y,47.5645094,-122.6472219
MLS Listing,,Single Family Residential,4913 W Prospect St,Bremerton,WA,98312,325000,5,2,South Kitsap,2300,8712,1942,5,141,,Active,,,http://www.redfin.com/WA/Bremerton/4913-W-Prospect-St-98312/home/2416576,NWMLS,1668472,N,Y,47.5409829,-122.6815147
MLS Listing,,Multi-Family (2-4 Unit),8568 Tracyton Blvd NW Unit A&B,Bremerton,WA,98311,399000,4,2,Central Kitsap,1864,27007,1945,5,214,,Active,,,http://www.redfin.com/WA/Bremerton/8568-Tracyton-Blvd-NW-98311/unit-A-B/home/173286657,NWMLS,1668081,N,Y,47.6406367,-122.6723534
MLS Listing,,Single Family Residential,8294 NE Lovgreen Rd,Bainbridge Island,WA,98110,725000,3,2,Bainbridge Island,1951,198634,2003,6,372,,Active,,,http://www.redfin.com/WA/Bainbridge-Island/8294-NE-Lovgreen-Rd-98110/home/2192698,NWMLS,1667379,N,Y,47.672389,-122.5378618
MLS Listing,,Single Family Residential,2961 Sprague St,Port Orchard,WA,98366,349999,3,2,Port Orchard,1306,6098,2001,6,268,20,Active,,,http://www.redfin.com/WA/Port-Orchard/2961-Sprague-St-98366/home/2517135,NWMLS,1667120,N,Y,47.5359331,-122.6128663
MLS Listing,,Single Family Residential,2012 Marine Dr,Bremerton,WA,98312,475000,3,2.75,Marine Drive,2236,14810,1934,6,212,,Active,,,http://www.redfin.com/WA/Bremerton/2012-Marine-Dr-98312/home/2322174,NWMLS,1667030,N,Y,47.5793259,-122.6742548
MLS Listing,,Single Family Residential,28851 Falkner Rd,Poulsbo,WA,98370,449000,2,1.75,Lofall,1592,22216,1993,6,282,,Active,,,http://www.redfin.com/WA/Poulsbo/28851-Falkner-Rd-NE-98370/home/2213592,NWMLS,1668184,N,Y,47.8245576,-122.6414986
MLS Listing,,Single Family Residential,4930 Pine Rd NE,Bremerton,WA,98311,254100,3,2,Central Kitsap,1304,8712,1972,6,195,,Active,,,http://www.redfin.com/WA/Bremerton/4930-Pine-Rd-NE-98311/home/2391570,NWMLS,1668661,N,Y,47.6079454,-122.6390803
MLS Listing,,Single Family Residential,487 Cave Ave NE,Bainbridge Island,WA,98110,625000,3,1.5,Winslow,1152,13504,1981,6,543,,Active,,,http://www.redfin.com/WA/Bainbridge-Island/487-Cave-Ave-NE-98110/home/2342899,NWMLS,1667260,N,Y,47.6283005,-122.5133488
MLS Listing,,Condo/Co-op,7751 NE Beacon Pl Unit F103,Bremerton,WA,98311,192500,1,0.75,Central Kitsap,769,,2006,6,250,263,Active,,,http://www.redfin.com/WA/Bremerton/7751-Beacon-Pl-NE-98311/unit-F103/home/173277841,NWMLS,1667558,N,Y,47.633433,-122.6353385
MLS Listing,,Mobile/Manufactured Home,3061 Maple St SE,Port Orchard,WA,98366,200000,2,1,Port Orchard,960,6534,1972,6,208,,Active,,,http://www.redfin.com/WA/Port-Orchard/3061-SE-Maple-St-98366/home/2422145,NWMLS,1664143,N,Y,47.5322938,-122.6114836
MLS Listing,,Single Family Residential,1135 Olympic Ave,Bremerton,WA,98312,229950,3,1,Bremerton,1616,5663,1941,6,142,,Active,,,http://www.redfin.com/WA/Bremerton/1135-Olympic-Ave-98312/home/2317193,NWMLS,1668440,N,Y,47.5723028,-122.6492003
MLS Listing,,Townhouse,1297 Patmos Ln NW Unit B,Bainbridge Island,WA,98110,880000,3,2.25,Winslow,1962,6534,2007,6,449,200,Active,,,http://www.redfin.com/WA/Bainbridge-Island/1297-Patmos-Ln-NW-98110/unit-B/home/12172893,NWMLS,1667044,N,Y,47.6356444,-122.5293755
MLS Listing,,Single Family Residential,5364 NE Pineridge Dr,Bremerton,WA,98311,474900,4,2.25,Central Kitsap,2310,8276,1977,6,206,,Active,,,http://www.redfin.com/WA/Bremerton/5364-Pineridge-Dr-NE-98311/home/2448435,NWMLS,1667900,N,Y,47.6129021,-122.640086
MLS Listing,,Single Family Residential,1205 Daniels Ave,Bremerton,WA,98312,379000,3,2,West Hills,1743,4792,1998,6,217,,Active,,,http://www.redfin.com/WA/Bremerton/1205-Daniels-Ave-98312/home/2403510,NWMLS,1651469,N,Y,47.5531461,-122.6754648
MLS Listing,,Vacant Land,18770 Noll Rd NE,Poulsbo,WA,98370,175000,0,,Lincoln Hill,,209524,,6,,,Active,,,http://www.redfin.com/WA/Poulsbo/18770-Noll-Rd-NE-98370/home/161077427,NWMLS,1664961,N,Y,47.7331873,-122.6079844
MLS Listing,,Single Family Residential,1915 9th St,Bremerton,WA,98337,299900,2,1,West Bremerton,794,3920,1916,6,378,,Active,,,http://www.redfin.com/WA/Bremerton/1915-9th-St-98337/home/2325186,NWMLS,1666849,N,Y,47.5693486,-122.6439464
MLS Listing,,Single Family Residential,18650 Noll Rd NE,Poulsbo,WA,98370,599500,2,1,Lincoln Hill,1792,865102,1920,6,335,,Active,,,http://www.redfin.com/WA/Poulsbo/18650-Noll-Rd-NE-98370/home/161077426,NWMLS,1656319,N,Y,47.731812,-122.610645
MLS Listing,,Single Family Residential,14229 Vintage Dr SW,Port Orchard,WA,98367,499000,3,2.5,Glenwood,2440,158558,1991,6,205,21,Active,,,http://www.redfin.com/WA/Port-Orchard/14229-Vintage-Dr-SW-98367/home/2444715,NWMLS,1668349,N,Y,47.4187735,-122.6972215
MLS Listing,,Single Family Residential,115 McWilliams Ct,Bremerton,WA,98311,425000,3,1.75,Tracyton,1852,14810,1993,7,229,,Active,,,http://www.redfin.com/WA/Bremerton/115-NE-McWilliams-Ct-98311/home/2301177,NWMLS,1667127,N,Y,47.6169929,-122.6460951
MLS Listing,,Vacant Land,505 Shore Dr,Bremerton,WA,98310,500000,0,,Bremerton,,6970,,7,,,Active,,,http://www.redfin.com/WA/Bremerton/505-Shore-Dr-98310/home/2327764,NWMLS,1667452,N,Y,47.5675874,-122.6124621
MLS Listing,,Single Family Residential,7416 NE Abies Dr,Bainbridge Island,WA,98110,1495000,6,3.5,Meadowmeer,4972,37026,1994,7,301,,Active,,,http://www.redfin.com/WA/Bainbridge-Island/7416-NE-Abies-Dr-98110/home/2481472,NWMLS,1666930,N,Y,47.6671458,-122.5511225
MLS Listing,,Single Family Residential,2819 20th St,Bremerton,WA,98312,395000,3,1.75,Bremerton,1486,3920,2017,7,266,,Active,,,http://www.redfin.com/WA/Bremerton/2819-20th-St-98312/home/2322201,NWMLS,1665254,N,Y,47.5788764,-122.6554418
MLS Listing,,Single Family Residential,1980 N Wycoff Ave,Bremerton,WA,98312,370000,3,1.75,West Bremerton,2576,4792,2010,7,144,,Active,,,http://www.redfin.com/WA/Bremerton/1980-N-Wycoff-Ave-98312/home/28957867,NWMLS,1667189,N,Y,47.5794579,-122.654185
MLS Listing,,Single Family Residential,6775 Aegean Blvd NE,Bremerton,WA,98311,395000,4,2.25,Kariotis,1792,7405,1977,7,220,,Active,,,http://www.redfin.com/WA/Bremerton/6775-Aegean-Blvd-NE-98311/home/2449208,NWMLS,1661074,N,Y,47.6243774,-122.6127004
MLS Listing,,Vacant Land,4 SE Goat Trail Rd,Port Orchard,WA,98366,175000,0,,View Park,,24394,,7,,,Active,,,http://www.redfin.com/WA/Port-Orchard/4-SE-Goat-Trail-RD-98366/home/173268259,NWMLS,1665913,N,Y,47.475769,-122.525062
MLS Listing,,Vacant Land,5 SE Goat Trail Rd,Port Orchard,WA,98366,175000,0,,View Park,,24394,,7,,,Active,,,http://www.redfin.com/WA/Port-Orchard/5-SE-Goat-Trail-RD-98366/home/173268258,NWMLS,1665924,N,Y,47.47566,-122.525255
MLS Listing,,Vacant Land,6 SE Goat Trail Rd,Port Orchard,WA,98366,175000,0,,View Park,,24829,,7,,,Active,,,http://www.redfin.com/WA/Port-Orchard/6-SE-Goat-Trail-RD-98366/home/173268256,NWMLS,1665932,N,Y,47.475551,-122.525491
MLS Listing,,Vacant Land,2 SE Goat Trail Rd,Port Orchard,WA,98366,175000,0,,View Park,,24394,,7,,,Active,,,http://www.redfin.com/WA/Port-Orchard/2-SE-Goat-Trail-RD-98366/home/173268201,NWMLS,1665894,N,Y,47.476059,-122.524558
MLS Listing,,Vacant Land,1 SE Goat Trail Rd,Port Orchard,WA,98366,175000,0,,View Park,,23522,,7,,,Active,,,http://www.redfin.com/WA/Port-Orchard/1-SE-Goat-Trail-RD-98366/home/173268200,NWMLS,1665883,N,Y,47.476189,-122.524397
MLS Listing,,Vacant Land,3 SE Goat Trail Rd,Port Orchard,WA,98366,175000,0,,View Park,,24394,,7,,,Active,,,http://www.redfin.com/WA/Port-Orchard/3-SE-Goat-Trail-RD-98366/home/173268199,NWMLS,1665901,N,Y,47.475928,-122.524858
MLS Listing,,Single Family Residential,3629 Preble St,Bremerton,WA,98312,319999,2,2,Bremerton,1083,5663,2017,7,295,,Active,,,http://www.redfin.com/WA/Bremerton/3629-Preble-St-98312/home/85029237,NWMLS,1663312,N,Y,47.556119,-122.664159
MLS Listing,,Mobile/Manufactured Home,6116 Kitsap Way #43,Bremerton,WA,98312,125000,3,2,Bremerton,1824,2240,2000,7,69,,Active,,,http://www.redfin.com/WA/Bremerton/6116-Kitsap-Way-98312/unit-43/home/173267200,NWMLS,1666630,N,Y,47.5768534,-122.6963535
MLS Listing,,Single Family Residential,6745 NE Fir St,Suquamish,WA,98392,140000,2,0.75,Suquamish,900,6534,1918,8,156,,Active,,,http://www.redfin.com/WA/Suquamish/6745-NE-Fir-St-98392/home/2381123,NWMLS,1664958,N,Y,47.7308333,-122.5589028
MLS Listing,,Single Family Residential,7563 NE Meadowmeer Ln,Bainbridge Island,WA,98110,879000,3,3,Meadowmeer,3112,20909,1978,8,282,,Active,,,http://www.redfin.com/WA/Bainbridge-Island/7563-NE-Meadowmeer-Ln-98110/home/2354509,NWMLS,1666658,N,Y,47.6622794,-122.5492819
MLS Listing,,Mobile/Manufactured Home,6684 NE Fir St,Suquamish,WA,98392,135000,2,1,Suquamish,800,4356,1970,8,169,,Active,,,http://www.redfin.com/WA/Suquamish/6684-NE-Fir-St-98392/home/2381143,NWMLS,1664486,N,Y,47.7311762,-122.5599545
MLS Listing,,Single Family Residential,10125 Citation Ct,Bainbridge Island,WA,98110,2499900,4,5.75,Bainbridge,10556,74488,2006,8,237,100,Active,,,http://www.redfin.com/WA/Bainbridge-Island/10125-Citation-Ct-98110/home/2464776,NWMLS,1666791,N,Y,47.6544786,-122.5328367
MLS Listing,,Single Family Residential,13874 LaVigne Ct NE,Bainbridge Island,WA,98110,1150000,4,2.75,Sunrise,3601,42689,2018,8,319,125,Active,,,http://www.redfin.com/WA/Bainbridge-Island/13874-La-Vigne-Ct-NE-98110/home/109640773,NWMLS,1667259,N,Y,47.688658,-122.510964
MLS Listing,,Single Family Residential,579 SW Marion Dr,Port Orchard,WA,98367,364999,3,2,Port Orchard,1265,9148,2020,8,289,,Active,,,http://www.redfin.com/WA/Port-Orchard/579-SW-Marion-Dr-98367/home/173259533,NWMLS,1667229,N,Y,47.4402792,-122.6545431
MLS Listing,,Mobile/Manufactured Home,5307 State Hwy 303 NE #61,Bremerton,WA,98311,79900,3,1.75,East Bremerton,1440,,1974,8,55,,Active,,,http://www.redfin.com/WA/Bremerton/5307-Washington-303-98311/unit-61/home/173259102,NWMLS,1667198,N,Y,47.61063,-122.63123
MLS Listing,,Condo/Co-op,320 Washington Ave Unit C302,Bremerton,WA,98337,479000,2,1.25,Bremerton,1191,,2007,8,402,574,Active,,,http://www.redfin.com/WA/Bremerton/320-Washington-Ave-98337/unit-C302/home/173255600,NWMLS,1662350,N,Y,47.5650338,-122.6240383
MLS Listing,,Single Family Residential,30119 Gamble Pl NE,Kingston,WA,98346,995000,3,2.5,Little Boston,2163,43996,1983,8,460,,Active,,,http://www.redfin.com/WA/Kingston/30119-Gamble-Pl-NE-98346/home/2364690,NWMLS,1666914,N,Y,47.8355837,-122.5652952
MLS Listing,,Condo/Co-op,120 Hall Brothers Loop NW #102,Bainbridge Island,WA,98110,649000,2,2,Winslow,1143,,2006,9,568,674,Active,,,http://www.redfin.com/WA/Bainbridge-Island/120-Hall-Brothers-Loop-NW-98110/unit-102/home/11762633,NWMLS,1666359,N,Y,47.6254013,-122.5232593
MLS Listing,,Single Family Residential,4112 Quiet Dr NW,Bremerton,WA,98312,450000,2,2,Wildcat Lake,1831,241322,1991,9,246,,Active,,,http://www.redfin.com/WA/Bremerton/4112-Quiet-Dr-NW-98312/home/2158087,NWMLS,1663221,N,Y,47.6020072,-122.803998
MLS Listing,,Single Family Residential,1507 Bloomington,Bremerton,WA,98312,230000,3,1.75,West Bremerton,1176,10890,1939,9,196,,Active,,,http://www.redfin.com/WA/Bremerton/1507-Bloomington-Ave-98312/home/2209803,NWMLS,1666646,N,Y,47.575056,-122.6494073
MLS Listing,,Vacant Land,123 SE Grandview St,Port Orchard,WA,98366,250000,0,,Southworth,,154202,,9,,,Active,,,http://www.redfin.com/WA/Southworth/123-SE-Grandview-St-98366/home/168676993,NWMLS,1666739,N,Y,47.506517,-122.515416
MLS Listing,,Single Family Residential,3915 Christine Ln NW,Bremerton,WA,98312,545000,3,2.5,Central Kitsap,2412,100624,2007,9,226,,Active,,,http://www.redfin.com/WA/Bremerton/3915-Christine-Ln-NW-98312/home/2153378,NWMLS,1665390,N,Y,47.602132,-122.79493
MLS Listing,,Single Family Residential,20972 Jefferson Beach Rd NE,Kingston,WA,98346,545000,2,3,Jefferson Beach,2308,20038,1967,9,236,13,Active,,,http://www.redfin.com/WA/Kingston/20972-Jefferson-Beach-Rd-NE-98346/home/2374879,NWMLS,1666438,N,Y,47.752701,-122.4774891
MLS Listing,,Single Family Residential,2127 Soundview Ave NE,Bremerton,WA,98310,335000,2,1,Manette,1686,7841,1941,11,199,,Active,,,http://www.redfin.com/WA/Bremerton/2127-Soundview-Ave-NE-98310/home/2404660,NWMLS,1666017,N,Y,47.5800296,-122.6059142
MLS Listing,,Single Family Residential,11729 Royal Ave NE,Bainbridge Island,WA,98110,412900,1,0.75,Battle Point,640,17860,1925,12,645,,Active,,,http://www.redfin.com/WA/Bainbridge-Island/11729-Royal-Ave-NE-98110/home/17460608,NWMLS,1664683,N,Y,47.6694552,-122.578742
MLS Listing,,Single Family Residential,10329 NE Sunrose Ln,Bainbridge Island,WA,98110,715000,4,1.75,Sunrise,2887,33541,1964,12,248,,Active,,,http://www.redfin.com/WA/Bainbridge-Island/10329-NE-Sunrose-Ln-98110/home/2148831,NWMLS,1665332,N,Y,47.6811823,-122.511108
MLS Listing,,Single Family Residential,3742 NW Lowell St,Silverdale,WA,98383,450000,3,1.75,Silverdale,1976,19166,1961,12,228,,Active,,,http://www.redfin.com/WA/Silverdale/3742-NW-Lowell-St-98383/home/2392303,NWMLS,1664871,N,Y,47.6455871,-122.7005501
MLS Listing,,Vacant Land,111111 South Kingston Rd NE,Indianola,WA,98342,265000,0,,Indianola,,700445,,12,,,Active,,,http://www.redfin.com/WA/Indianola/111111-S-Kingston-Rd-NE-98342/home/173219179,NWMLS,1664920,N,Y,47.763814,-122.524291
MLS Listing,,Single Family Residential,4698 Rutherford Cir SW,Port Orchard,WA,98367,510000,4,2.5,McCormick,2859,10019,2007,12,178,,Active,,,http://www.redfin.com/WA/Port-Orchard/4698-Rutherford-Cir-SW-98367/home/12172943,NWMLS,1665762,N,Y,47.5076484,-122.6822744
MLS Listing,,Single Family Residential,4753 Okanogan Dr SE,Port Orchard,WA,98366,480000,4,3,Port Orchard,3112,5227,2006,12,154,,Active,,,http://www.redfin.com/WA/Port-Orchard/4753-Okanogan-Dr-SE-98366/home/12099450,NWMLS,1663526,N,Y,47.5059696,-122.6247478
MLS Listing,,Single Family Residential,8106 5th Ave NE,Bremerton,WA,98311,369900,3,1.5,Illahee,1572,12197,1974,12,235,,Active,,,http://www.redfin.com/WA/Bremerton/8106-5th-Ave-NE-98311/home/2386169,NWMLS,1665697,N,Y,47.6370266,-122.6062999
MLS Listing,,Condo/Co-op,284 Madrona Way NE #224,Bainbridge Island,WA,98110,765000,3,2.75,Winslow,1954,,2000,12,392,701,Active,,,http://www.redfin.com/WA/Bainbridge-Island/284-Madrona-Way-NE-98110/unit-224/home/173216595,NWMLS,1656696,N,Y,47.6279222,-122.5189315
MLS Listing,,Single Family Residential,3722 SW Huckleberry Rd,Port Orchard,WA,98367,725000,3,2.5,Port Orchard,2160,210830,2007,12,336,,Active,,,http://www.redfin.com/WA/Port-Orchard/3722-SW-Huckleberry-Rd-98367/home/14370147,NWMLS,1665541,N,Y,47.4359999,-122.699793
MLS Listing,,Single Family Residential,451 NE Conifer Dr,Bremerton,WA,98311,325000,2,2,East Bremerton,1152,11326,1975,12,282,,Active,,,http://www.redfin.com/WA/Bremerton/451-NE-Conifer-Dr-98311/home/2394509,NWMLS,1663613,N,Y,47.6325709,-122.642838
MLS Listing,,Single Family Residential,4135 NW 29th St,Bremerton,WA,98312,294500,2,0.75,Rocky Point,826,5227,1942,12,357,,Active,,,http://www.redfin.com/WA/Bremerton/4135-NW-29th-St-98312/home/2190420,NWMLS,1665394,N,Y,47.5907162,-122.6690222
MLS Listing,,Single Family Residential,9530 Sidney Rd SW,Port Orchard,WA,98367,650000,3,1.75,Port Orchard,2100,361984,1954,13,310,,Active,,,http://www.redfin.com/WA/Port-Orchard/9530-Sidney-Rd-SW-98367/home/2243756,NWMLS,1665354,N,Y,47.4620119,-122.6547383
MLS Listing,,Single Family Residential,11151 NE Hawkeye Pl,Kingston,WA,98346,520000,4,2.5,Kingston,2047,3049,2017,13,254,,Active,,,http://www.redfin.com/WA/Kingston/11151-NE-Hawkeye-Pl-98346/home/113029656,NWMLS,1664779,N,Y,47.8032469,-122.4999708
MLS Listing,,Vacant Land,9 NE Blakely Ave NE,Bainbridge Island,WA,98110,250000,0,,Bainbridge Island,,61855,,13,,,Active,,,http://www.redfin.com/WA/Bainbridge-Island/9-Blakely-Ave-NE-98110/home/173203608,NWMLS,1664873,N,Y,47.610047,-122.537485
MLS Listing,,Townhouse,915 NW Leisure Ln,Bremerton,WA,98311,297000,2,1.75,Huckle Ridge,1144,2614,1992,13,260,230,Active,,,http://www.redfin.com/WA/Bremerton/915-NW-Leisure-Ln-98311/home/2477383,NWMLS,1664238,N,Y,47.6458556,-122.6623166
MLS Listing,,Single Family Residential,111 Puller Ln,Bremerton,WA,98310,400000,4,2.5,Central Kitsap,1851,3049,2013,13,216,,Active,,,http://www.redfin.com/WA/Bremerton/111-Puller-Ln-98310/home/40621049,NWMLS,1663122,N,Y,47.5969674,-122.6524385
MLS Listing,,Vacant Land,7441 Salmonberry Creek Ln,Port Orchard,WA,98367,289999,0,,Port Orchard,,21344,,13,,,Active,,,http://www.redfin.com/WA/Unknown/Salmonberry-Creek-Ln-SE-98367/home/2436544,NWMLS,1664637,N,Y,47.480896,-122.594701
MLS Listing,,Single Family Residential,771 Freedom Ct SE,Port Orchard,WA,98366,375000,3,2.5,South Kitsap,1508,4792,2017,13,249,25,Active,,,http://www.redfin.com/WA/Port-Orchard/771-Freedom-Ct-SE-98366/home/108445732,NWMLS,1663924,N,Y,47.5384123,-122.6051422
MLS Listing,,Single Family Residential,4615 Viridian Ave SW,Port Orchard,WA,98367,518990,3,2.25,McCormick,2364,5000,2020,13,220,60,Active,,,http://www.redfin.com/WA/Port-Orchard/South-St-W-98367/home/168708259,NWMLS,1664836,N,Y,47.506779,-122.674468
MLS Listing,,Single Family Residential,1361 NE Hoff's Dr,Poulsbo,WA,98370,625000,4,2.25,Keyport,3486,53143,1978,13,179,,Active,,,http://www.redfin.com/WA/Poulsbo/1361-Hoffs-Dr-98370/home/2147281,NWMLS,1663139,N,Y,47.6917286,-122.6316572
MLS Listing,,Vacant Land,5630 SW Old Clifton Rd,Port Orchard,WA,98367,219500,0,,Port Orchard,,939589,,14,,,Active,,,http://www.redfin.com/WA/Port-Orchard/5630-SW-Old-Clifton-Rd-98367/home/160426963,NWMLS,1664623,N,Y,47.498835,-122.726135
MLS Listing,,Vacant Land,025 Brian Ln,Silverdale,WA,98383,1278048,0,,Silverdale,,213008,,14,,,Active,,,http://www.redfin.com/WA/Silverdale/025-Brian-Ln-NW-98383/home/173184369,NWMLS,1655407,N,Y,47.66898,-122.696983
MLS Listing,,Vacant Land,026 Brian Ln,Silverdale,WA,98383,1282800,0,,Silverdale,,213008,,14,,,Active,,,http://www.redfin.com/WA/Silverdale/026-Brian-Ln-NW-98383/home/173184368,NWMLS,1655408,N,Y,47.669905,-122.696888
MLS Listing,,Single Family Residential,2214 Garfield Pl SE,Port Orchard,WA,98366,366950,3,2.5,East Port Orchard,1814,3000,2020,15,202,,Active,,,http://www.redfin.com/WA/Port-Orchard/2214-Garfield-Pl-SE-98366/home/161172977,NWMLS,1663517,N,Y,47.529345,-122.626045
MLS Listing,,Single Family Residential,2226 Garfield Pl SE,Port Orchard,WA,98366,366950,3,2.5,East Port Orchard,1814,3750,2020,15,202,,Active,,,http://www.redfin.com/WA/Port-Orchard/2226-Garfield-Pl-SE-98366/home/161619203,NWMLS,1663499,N,Y,47.5292311,-122.62612
MLS Listing,,Single Family Residential,7445 E Wyoming St,Port Orchard,WA,98366,325000,2,1.75,Manchester,1292,33977,1954,15,252,,Active,,,http://www.redfin.com/WA/Port-Orchard/7445-E-Wyoming-St-98366/home/11762591,NWMLS,1646571,N,Y,47.559894,-122.5523556
MLS Listing,,Vacant Land,1930 Northlake Way NW,Bremerton,WA,98312,89950,0,,Kitsap Lake,,15246,,15,,,Active,,,http://www.redfin.com/WA/Bremerton/1930-Northlake-Way-NW-98312/home/2180573,NWMLS,1663167,N,Y,47.581582,-122.714707
MLS Listing,,Single Family Residential,24628 Hillbend Ln NE,Kingston,WA,98346,695000,3,2.5,Kingston,2737,22651,1996,16,254,,Active,,,http://www.redfin.com/WA/Kingston/24628-Hillbend-Ln-NE-98346/home/2305256,NWMLS,1660038,N,Y,47.7841364,-122.5077132
MLS Listing,,Single Family Residential,23167 Aslan Pl NE,Kingston,WA,98346,855000,3,3.5,Kingston,3789,17424,2006,16,226,70,Active,,,http://www.redfin.com/WA/Kingston/23167-Aslan-Pl-NE-98346/home/2539354,NWMLS,1663142,N,Y,47.7721603,-122.5174032
MLS Listing,,Single Family Residential,1021 High Ave,Bremerton,WA,98337,419500,5,2,West Bremerton,2938,6098,1935,16,143,,Active,,,http://www.redfin.com/WA/Bremerton/1021-High-Ave-98337/home/2322808,NWMLS,1647670,N,Y,47.5708293,-122.6412869
MLS Listing,,Mobile/Manufactured Home,705 NE Libra Ln,Bremerton,WA,98311,130000,3,2,Central Kitsap,1456,,1994,17,89,,Active,,,http://www.redfin.com/WA/Bremerton/705-NE-Libra-Ln-98311/home/173162418,NWMLS,1662665,N,Y,47.6250884,-122.640939
MLS Listing,,Single Family Residential,856 NE Riddell Rd,Bremerton,WA,98310,215000,3,1.75,East Bremerton,1488,13504,1965,18,144,,Active,,,http://www.redfin.com/WA/Bremerton/856-NE-Riddell-Rd-98311/home/2301861,NWMLS,1662535,N,Y,47.6070363,-122.6384331
MLS Listing,,Vacant Land,Tracyton Beach Rd SW,Bremerton,WA,98310,19584,0,,East Bremerton,,11121,,18,,,Active,,,http://www.redfin.com/WA/Bremerton/Tracyton-Beach-Rd-NW-98310/home/35625977,NWMLS,1662583,N,Y,47.58791,-122.64889
MLS Listing,,Single Family Residential,3394 Point White Dr NE,Bainbridge Island,WA,98110,2800000,4,3.25,Point White,3522,9148,1949,18,795,,Active,,,http://www.redfin.com/WA/Bainbridge-Island/3394-Point-White-Dr-NE-98110/home/2159293,NWMLS,1662565,N,Y,47.5946624,-122.5610683
MLS Listing,,Vacant Land,9685 Orchard Ave SE,Olalla,WA,98359,199950,0,,Olalla,,119790,,18,,,Active,,,http://www.redfin.com/WA/Olalla/9685-Orchard-Ave-SE-98359/home/161093848,NWMLS,1662509,N,Y,47.460344,-122.5553
MLS Listing,,Single Family Residential,8328 NW Duryea Rd,Bremerton,WA,98312,849000,3,2.25,Central Kitsap,2258,208217,1977,18,376,,Active,,,http://www.redfin.com/WA/Bremerton/8328-NW-Duryea-Rd-98312/home/2300513,NWMLS,1662066,N,Y,47.618597,-122.763865
MLS Listing,,Single Family Residential,1927 Hardway Ln,Bremerton,WA,98312,412950,3,2.5,West Hills,2252,3049,2020,18,183,,Active,,,http://www.redfin.com/WA/Bremerton/1927-Hardway-Ln-98312/home/168708334,NWMLS,1661939,N,Y,47.548442,-122.677227
MLS Listing,,Condo/Co-op,320 Washington Ave Unit C308,Bremerton,WA,98337,385000,1,1,Bremerton,896,,2007,19,430,432,Active,,,http://www.redfin.com/WA/Bremerton/320-Washington-Ave-98337/unit-C308/home/12247621,NWMLS,1662363,N,Y,47.5644508,-122.624446
MLS Listing,,Condo/Co-op,400 Harborview Dr SE #213,Bainbridge Island,WA,98110,895000,2,1.5,Winslow,1434,,1982,19,624,753,Active,,,http://www.redfin.com/WA/Bainbridge-Island/400-Harborview-Dr-SE-98110/unit-213/home/2509527,NWMLS,1660086,N,Y,47.622813,-122.5133089
MLS Listing,,Vacant Land,Frog Song Pl NE,Kingston,WA,98346,199950,0,,Kingston,,223898,,19,,,Active,,,http://www.redfin.com/WA/Unknown/Frogsong-Pl-NE-98346/home/173147325,NWMLS,1662263,N,Y,47.829096,-122.525861
MLS Listing,,Single Family Residential,1980 Chico Way NW,Bremerton,WA,98312,449000,3,2,Kitsap Lake,2895,24829,1939,19,155,,Active,,,http://www.redfin.com/WA/Bremerton/1980-Chico-Way-NW-98312/home/2180180,NWMLS,1660416,N,Y,47.5813145,-122.7066195
MLS Listing,,Single Family Residential,6970 E Dakota St,Port Orchard,WA,98366,385450,3,2.25,Manchester,1854,8712,2006,19,208,,Active,,,http://www.redfin.com/WA/Port-Orchard/6970-E-Dakota-St-98366/home/2538603,NWMLS,1662104,N,Y,47.5601354,-122.5606233
MLS Listing,,Single Family Residential,5140 Sinclair Way,Bremerton,WA,98312,395950,4,2.5,West Hills,2047,3923,2020,19,193,,Active,,,http://www.redfin.com/WA/Bremerton/5140-Sinclair-Way-98312/home/173147211,NWMLS,1662194,N,Y,47.5489166,-122.6852647
MLS Listing,,Single Family Residential,4736 Deadwood St,Bremerton,WA,98312,405900,3,2,Bremerton,1319,4250,2020,19,308,,Active,,,http://www.redfin.com/WA/Bremerton/4736-Deadwood-ST-98312/home/173147203,NWMLS,1662312,N,Y,47.566182,-122.678619
MLS Listing,,Single Family Residential,5148 Sinclair Way,Bremerton,WA,98312,385950,3,2.5,West Hills,1888,3600,2020,19,204,,Active,,,http://www.redfin.com/WA/Bremerton/5148-Sinclair-Way-98312/home/173143655,NWMLS,1661884,N,Y,47.5489166,-122.6852647
MLS Listing,,Single Family Residential,5152 Sinclair Way,Bremerton,WA,98312,395950,4,2.5,West Hills,2047,3600,2020,19,193,,Active,,,http://www.redfin.com/WA/Bremerton/5152-Sinclair-Way-98312/home/173143621,NWMLS,1661881,N,Y,47.5489166,-122.6852647
MLS Listing,,Single Family Residential,5160 Sinclair Way,Bremerton,WA,98312,425950,5,2.75,West Hills,2443,3600,2020,19,174,,Active,,,http://www.redfin.com/WA/Bremerton/5160-Sinclair-Way-98312/home/173143588,NWMLS,1661868,N,Y,47.5489166,-122.6852647
MLS Listing,,Single Family Residential,5186 Sinclair Way,Bremerton,WA,98312,385950,3,2.5,West Hills,1888,3603,2020,19,204,,Active,,,http://www.redfin.com/WA/Bremerton/5186-Sinclair-Way-98312/home/173143533,NWMLS,1661832,N,Y,47.5489166,-122.6852647
MLS Listing,,Single Family Residential,5176 Sinclair Way,Bremerton,WA,98312,395950,4,2.5,West Hills,2047,4160,2020,19,193,,Active,,,http://www.redfin.com/WA/Bremerton/5176-Sinclair-Way-98312/home/173143495,NWMLS,1661826,N,Y,47.5489166,-122.6852647
MLS Listing,,Single Family Residential,5194 Sophie St,Bremerton,WA,98312,395950,4,2.5,West Hills,2047,4007,2020,19,193,,Active,,,http://www.redfin.com/WA/Bremerton/5194-Sophie-ST-98312/home/173143469,NWMLS,1661820,N,Y,47.548314,-122.684277
MLS Listing,,Single Family Residential,4145 Ramsey Rd SE,Port Orchard,WA,98336,129950,2,2,Port Orchard,1320,10454,1944,19,98,,Active,,,http://www.redfin.com/WA/Port-Orchard/4145-Ramsey-Rd-SE-98366/home/2144672,NWMLS,1661092,N,Y,47.5111979,-122.6339976
MLS Listing,,Single Family Residential,21773 Jefferson Beach Rd NE,Kingston,WA,98346,579000,3,2.5,Jefferson Beach,2316,19602,2020,19,250,13,Active,,,http://www.redfin.com/WA/Kingston/21773-Jefferson-Beach-Rd-NE-98346/home/2375364,NWMLS,1661566,N,Y,47.7601871,-122.4777356
MLS Listing,,Single Family Residential,9403 Eric Ave NE,Bainbridge Island,WA,98110,899700,4,2.75,Bainbridge Island,3294,37897,1992,20,273,,Active,,,http://www.redfin.com/WA/Bainbridge-Island/9403-Eric-Pl-NE-98110/home/2192608,NWMLS,1658856,N,Y,47.6740474,-122.5242572
MLS Listing,,Vacant Land,Lot C NE Falcon Ridge Ln,Poulsbo,WA,98370,220000,0,,Poulsbo,,222592,,20,,,Active,,,http://www.redfin.com/WA/Unknown/LOT-C-NE-Falcon-Ridge-Ln-98370/home/45473794,NWMLS,1660605,N,Y,47.756818,-122.580013
MLS Listing,,Single Family Residential,235 Poplar St,Port Orchard,WA,98366,389900,5,2.5,Port Orchard,2480,18731,2008,20,157,,Active,,,http://www.redfin.com/WA/Port-Orchard/235-Poplar-St-98366/home/12226536,NWMLS,1661389,N,Y,47.5232387,-122.6453887
MLS Listing,,Single Family Residential,1597 Eady Pl E,Port Orchard,WA,98366,500000,3,2.5,Port Orchard,3292,185130,1955,20,152,,Active,,,http://www.redfin.com/WA/Port-Orchard/1597-Eady-Pl-E-98366/home/2275369,NWMLS,1649825,N,Y,47.5480956,-122.5799558
MLS Listing,,Single Family Residential,3079 Rocky Pt NW,Bremerton,WA,98312,429900,3,2,Rocky Point,1311,17860,1964,20,328,,Active,,,http://www.redfin.com/WA/Bremerton/3079-Rocky-Point-Rd-NW-98312/home/2153731,NWMLS,1659996,N,Y,47.5961859,-122.6690744
MLS Listing,,Condo/Co-op,170 Harbor Square Lp Unit A-308,Bainbridge Island,WA,98110,449000,1,1.5,Winslow,867,,2006,20,518,419,Active,,,http://www.redfin.com/WA/Bainbridge-Island/170-Harbor-Square-Loop-NE-98110/unit-A308/home/12099530,NWMLS,1660125,N,Y,47.6253798,-122.5117062
MLS Listing,,Vacant Land,28005 Trillium Ln NE,Poulsbo,WA,98370,249950,0,,Poulsbo,,212000,,20,,,Active,,,http://www.redfin.com/WA/Poulsbo/28005-Trillium-Ln-NE-98370/home/2306980,NWMLS,1660911,N,Y,47.783533,-122.6094701
MLS Listing,,Single Family Residential,4121 W Loxie Eagans Blvd,Bremerton,WA,98312,255000,2,1,Navy Yard City,1112,3049,1939,21,229,,Active,,,http://www.redfin.com/WA/Bremerton/4121-W-Loxie-Eagans-Blvd-98312/home/2131794,NWMLS,1658952,N,Y,47.5578159,-122.6690312
MLS Listing,,Single Family Residential,10702 NE Red Cedar Way,Kingston,WA,98346,895000,3,2.5,Kingston,3000,99317,2020,21,298,,Active,,,http://www.redfin.com/WA/Kingston/10702-NE-Red-Cedar-Way-98346/home/161099629,NWMLS,1660147,N,Y,47.813812,-122.505974
MLS Listing,,Single Family Residential,13805 Fagerholm Ln SE,Olalla,WA,98359,749000,4,1.5,Olalla,3120,97000,1955,21,240,,Active,,,http://www.redfin.com/WA/Olalla/13805-Fagerholm-Ln-SE-98359/home/2150810,NWMLS,1659978,N,Y,47.4221441,-122.5418664
MLS Listing,,Single Family Residential,6721 NE Whidbey Dr,Hansville,WA,98340,570000,3,2.5,Twin Spits,2544,8712,1999,21,224,,Active,,,http://www.redfin.com/WA/Hansville/6721-NE-Whidbey-Dr-98340/home/2361828,NWMLS,1660305,N,Y,47.9176347,-122.5585085
MLS Listing,,Single Family Residential,10673 NE West Kingston Rd,Kingston,WA,98346,1500000,3,2.25,Kingston,2690,9148,2003,21,558,,Active,,,http://www.redfin.com/WA/Kingston/10673-NE-West-Kingston-Rd-98346/home/2367655,NWMLS,1659837,N,Y,47.7973951,-122.5042907
MLS Listing,,Single Family Residential,16364 Reitan Rd NE,Bainbridge Island,WA,98110,1598000,4,2.5,Agate Point,3790,57935,1985,21,422,,Active,,,http://www.redfin.com/WA/Bainbridge-Island/16364-Reitan-Rd-NE-98110/home/173109419,NWMLS,1651163,N,Y,47.7127676,-122.5623678
MLS Listing,,Single Family Residential,300 Pioneer Hill Rd,Poulsbo,WA,98370,449950,3,2.75,Breidablick,1716,54014,1978,21,262,,Active,,,http://www.redfin.com/WA/Poulsbo/300-NW-Pioneer-Hill-Rd-98370/home/2298533,NWMLS,1660319,N,Y,47.7842245,-122.6535796
MLS Listing,,Single Family Residential,4629 Twin Spits Rd NE,Hansville,WA,98340,1525000,2,4,Twin Spits,4740,121968,2020,21,322,,Active,,,http://www.redfin.com/WA/Hansville/4629-NE-Twin-Spits-Rd-98340/home/161098994,NWMLS,1659766,N,Y,47.917547,-122.5909935
MLS Listing,,Single Family Residential,760 Fords Ct NW,Bainbridge Island,WA,98110,739000,3,2.5,Winslow,1758,3049,2020,23,420,40,Active,,,http://www.redfin.com/WA/Bainbridge-Island/760-Fords-Ct-NW-98110/home/173082856,NWMLS,1658157,N,Y,47.632075,-122.521037
MLS Listing,,Single Family Residential,1924 Higgins Rd SE,Port Orchard,WA,98366,574500,3,2.75,South Kitsap,2990,25700,2006,23,192,,Active,,,http://www.redfin.com/WA/Port-Orchard/1924-Higgins-Rd-SE-98366/home/2422127,NWMLS,1659403,N,Y,47.5309393,-122.613315
MLS Listing,,Single Family Residential,15115 Henderson Rd NE,Bainbridge Island,WA,98110,2590000,3,2.5,Seabold,3306,81457,1966,24,783,,Active,,,http://www.redfin.com/WA/Bainbridge-Island/15115-Henderson-Rd-NE-98110/home/2292448,NWMLS,1657204,N,Y,47.699348,-122.5615377
MLS Listing,,Single Family Residential,4725 Viridian Ave SW,Port Orchard,WA,98367,528579,4,2.5,McCormick,2448,5000,2020,24,216,60,Active,,,http://www.redfin.com/WA/Port-Orchard/South-St-W-98367/home/168708251,NWMLS,1659294,N,Y,47.505822,-122.674725
MLS Listing,,Condo/Co-op,360 Washington Ave #307,Bremerton,WA,98337,459000,1,1.25,Bremerton,1185,,2007,24,387,621,Active,,,http://www.redfin.com/WA/Bremerton/360-Washington-Ave-98337/unit-307/home/12332942,NWMLS,1653693,N,Y,47.5645842,-122.622898
MLS Listing,,Vacant Land,Acreage SE Woods Rd,Port Orchard,WA,98366,85000,0,,South Kitsap,,111949,,25,,,Active,,,http://www.redfin.com/WA/Port-Orchard/Acreage-SE-Woods-Rd-98366/home/143806486,NWMLS,1659114,N,Y,47.541875,-122.570752
MLS Listing,,Single Family Residential,11610 Wing Point Way NE,Bainbridge Island,WA,98110,2996000,4,4,Wing Point,3924,30928,1977,25,764,9,Active,,,http://www.redfin.com/WA/Bainbridge-Island/11610-NE-Wing-Point-Way-98110/home/2342977,NWMLS,1657845,N,Y,47.628065,-122.4936189
MLS Listing,,Single Family Residential,2106 E Phinney Bay Dr,Bremerton,WA,98312,599950,3,3,Phinney Bay,3676,20909,1994,26,163,,Active,,,http://www.redfin.com/WA/Bremerton/2106-E-Phinney-Bay-Dr-98312/home/2320654,NWMLS,1658651,N,Y,47.5794004,-122.657831
MLS Listing,,Vacant Land,1390 Angels Ln NW,Seabeck,WA,98380,252000,0,,Seabeck,,872942,,26,,,Active,,,http://www.redfin.com/WA/Seabeck/1390-Angels-Ln-NW-98380/home/40002121,NWMLS,1658729,N,Y,47.5785778,-122.8733172
MLS Listing,,Single Family Residential,27770 Resource Ridge Ave NE,Kingston,WA,98346,615000,3,3,Kingston,2990,116741,1994,27,206,23,Active,,,http://www.redfin.com/WA/Kingston/27770-Resource-Ridge-Ave-NE-98346/home/2475173,NWMLS,1656949,N,Y,47.8124127,-122.5655776
MLS Listing,,Mobile/Manufactured Home,106 Peter Hagen Rd W,Seabeck,WA,98380,260000,3,2,Seabeck,1080,106480,1995,27,241,,Active,,,http://www.redfin.com/WA/Seabeck/106-Peter-Hagen-Rd-NW-98380/home/2254031,NWMLS,1657765,N,Y,47.563381,-122.870809
MLS Listing,,Condo/Co-op,428 Harborview Dr SE #112,Bainbridge Island,WA,98110,799900,2,1.75,Winslow,1190,,1979,28,672,627,Active,,,http://www.redfin.com/WA/Bainbridge-Island/428-Harborview-Dr-SE-98110/unit-112/home/2506183,NWMLS,1655725,N,Y,47.621777,-122.5125785
MLS Listing,,Single Family Residential,9909 Fredrickson Rd NW,Bremerton,WA,98311,369950,3,1,Silverdale,912,10019,1971,28,406,,Active,,,http://www.redfin.com/WA/Bremerton/9909-Fredrickson-Rd-NW-98311/home/2222640,NWMLS,1656855,N,Y,47.653523,-122.6753229
MLS Listing,,Vacant Land,371 NW Dyes View Ct,Bremerton,WA,98311,215000,0,,Tracyton,,13068,,28,,,Active,,,http://www.redfin.com/WA/Bremerton/371-NW-Dyes-View-Ct-98311/home/161079150,NWMLS,1656334,N,Y,47.6112231,-122.6533444
MLS Listing,,Single Family Residential,3356 Amak Ln,Bremerton,WA,98310,499950,4,2.5,Tracyton,2314,2614,2020,28,216,100,Active,,,http://www.redfin.com/WA/Bremerton/Unknown-98310/home/168708032,NWMLS,1656487,N,Y,47.594813,-122.651762
MLS Listing,,Townhouse,861 NW Highgarden Dr #6,Bremerton,WA,98311,355000,3,2.5,Central Valley,1620,1750,2020,28,219,,Active,,,http://www.redfin.com/WA/Bremerton/861-NW-Highgarden-DR-98311/unit-6/home/173034872,NWMLS,1657191,N,Y,47.656462,-122.661698
MLS Listing,,Townhouse,849 NW Highgarden Dr #5,Bremerton,WA,98311,365000,4,3,Central Valley,1882,1750,2021,28,194,,Active,,,http://www.redfin.com/WA/Bremerton/849-NW-Highgarden-DR-98311/unit-5/home/173034843,NWMLS,1657183,N,Y,47.656631,-122.662592
MLS Listing,,Single Family Residential,6000 SW Rhododendron Dr,Port Orchard,WA,98367,489000,3,2,Sunnyslope,1716,30928,2020,28,285,,Active,,,http://www.redfin.com/WA/Port-Orchard/6000-SW-Rhododendron-Dr-98367/home/2438134,NWMLS,1655572,N,Y,47.501957,-122.7313076
MLS Listing,,Townhouse,801 NW Highgarden Dr #1,Bremerton,WA,98311,370000,4,3,Central Valley,1882,1750,2021,28,197,,Active,,,http://www.redfin.com/WA/Bremerton/801-NW-Highgarden-DR-98311/unit-1/home/173033207,NWMLS,1657020,N,Y,47.656631,-122.662592
MLS Listing,,Townhouse,813 NW Highgarden Dr #2,Bremerton,WA,98311,355000,3,2.5,Central Valley,1620,1750,2020,28,219,,Active,,,http://www.redfin.com/WA/Bremerton/813-NW-Highgarden-DR-98311/unit-2/home/173033206,NWMLS,1657026,N,Y,47.656462,-122.661698
MLS Listing,,Townhouse,837 NW Highgarden Dr #4,Bremerton,WA,98311,355000,3,2.5,Central Valley,1620,1750,2021,28,219,,Active,,,http://www.redfin.com/WA/Bremerton/837-NW-Highgarden-DR-98311/unit-4/home/173033204,NWMLS,1657032,N,Y,47.656462,-122.661698
MLS Listing,,Townhouse,825 NW Highgarden Dr #3,Bremerton,WA,98311,365000,4,3,Central Valley,1882,1750,2021,28,194,,Active,,,http://www.redfin.com/WA/Bremerton/825-NW-Highgarden-DR-98311/unit-3/home/173033203,NWMLS,1657043,N,Y,47.656631,-122.662592
MLS Listing,,Single Family Residential,17050 Finley Rd NE,Poulsbo,WA,98370,450000,3,1.5,Poulsbo,1952,44867,1981,28,231,,Active,,,http://www.redfin.com/WA/Poulsbo/17050-Finley-Rd-NE-98370/home/161141624,NWMLS,1655361,N,Y,47.7176653,-122.5874382
MLS Listing,,Single Family Residential,7015 SE 160th St,Olalla,WA,98359,614900,3,2.75,Olalla,2790,25700,2020,29,220,,Active,,,http://www.redfin.com/WA/Olalla/7015-160th-St-NW-98359/home/168702150,NWMLS,1655286,N,Y,47.404105,-122.558093
MLS Listing,,Vacant Land,3875 Anderson Hill Rd SW,Port Orchard,WA,98367,159000,0,,South Kitsap,,35719,,29,,,Active,,,http://www.redfin.com/WA/Port-Orchard/3875-Anderson-Hill-Rd-SW-98367/home/160611294,NWMLS,1655950,N,Y,47.513487,-122.677434
MLS Listing,,Single Family Residential,18770 2nd Ave NE,Suquamish,WA,98392,387500,4,2,Suquamish,1986,7841,1981,30,195,,Active,,,http://www.redfin.com/WA/Suquamish/18770-2nd-Ave-NE-98392/home/2380545,NWMLS,1654710,N,Y,47.7330299,-122.5541207
MLS Listing,,Vacant Land,37409 NE Fern Pl,Hansville,WA,98340,41500,0,,Driftwood Key,,12197,,32,,,Active,,,http://www.redfin.com/WA/Hansville/37409-NE-Fern-Pl-98340/home/161098811,NWMLS,1655193,N,Y,47.902327,-122.5785011
MLS Listing,,Single Family Residential,16804 NW Olympic View Cir,Silverdale,WA,98383,399999,3,2,Olympic View,1220,15246,1978,32,328,,Active,,,http://www.redfin.com/WA/Unknown/16804-NW-Olympic-View-Ct-98383/home/172988860,NWMLS,1654566,N,Y,47.716907,-122.745727
MLS Listing,,Multi-Family (2-4 Unit),1203 4th St,Bremerton,WA,98337,475000,4,3,West Bremerton,1756,3920,1914,32,271,,Active,,,http://www.redfin.com/WA/Bremerton/1203-4th-St-98337/home/2540661,NWMLS,1655037,N,Y,47.5657077,-122.6358962
MLS Listing,,Single Family Residential,8902 lawrence Dr SE,Port Orchard,WA,98367,590000,4,3,South Kitsap,2494,59242,2006,33,237,,Active,,,http://www.redfin.com/WA/Port-Orchard/8902-Lawrence-Dr-SE-98367/home/2433376,NWMLS,1653960,N,Y,47.4680702,-122.5880417
MLS Listing,,Vacant Land,5305 Beach Dr,Bremerton,WA,98312,59000,0,,Madrona Point,,6098,,33,,,Active,,,http://www.redfin.com/WA/Bremerton/5305-Beach-Dr-98312/home/17875685,NWMLS,1653757,N,Y,47.574048,-122.685144
MLS Listing,,Single Family Residential,2441 NE Trail Way,Poulsbo,WA,98370,950000,3,2.5,Keyport,2560,101059,1979,33,371,,Active,,,http://www.redfin.com/WA/Poulsbo/2441-NE-Trail-Way-98370/home/2141311,NWMLS,1650416,N,Y,47.6889206,-122.618672
MLS Listing,,Single Family Residential,3964 Southern Cross,Bainbridge Island,WA,98110,1998000,4,4.5,Port Blakely,4490,37897,2020,33,445,,Active,,,http://www.redfin.com/WA/Bainbridge-Island/3964-Southern-Cross-Rd-NE-98110/home/144794922,NWMLS,1654464,N,Y,47.5987072,-122.5121494
MLS Listing,,Vacant Land,4311 Bethel Rd SE,Port Orchard,WA,98366,2500000,0,,Bethel,,448668,,33,,,Active,,,http://www.redfin.com/WA/Port-Orchard/4311-Bethel-Rd-SE-98366/home/2543531,NWMLS,1654727,N,Y,47.510056,-122.628583
MLS Listing,,Single Family Residential,200 NW Carter Farms Ct,Bremerton,WA,98310,650000,3,1.75,East Bremerton,2228,19166,1966,34,292,,Active,,,http://www.redfin.com/WA/Bremerton/200-NW-Carter-Farms-Ct-98310/home/2154005,NWMLS,1652161,N,Y,47.5927744,-122.6527485
MLS Listing,,Single Family Residential,8806 Hudson Ct NE,Bainbridge Island,WA,98110,899000,3,2.5,Bainbridge Island,2478,45738,1996,34,363,48,Active,,,http://www.redfin.com/WA/Bainbridge-Island/8806-Hudson-Ct-NE-98110/home/2488540,NWMLS,1654094,N,Y,47.643849,-122.5355714
MLS Listing,,Single Family Residential,15678 NE Virginia Pt Rd,Poulsbo,WA,98370,875000,2,2.25,Poulsbo,2102,23958,1953,34,416,,Active,,,http://www.redfin.com/WA/Poulsbo/15678-Virginia-Point-Rd-NE-98370/home/2303194,NWMLS,1651247,N,Y,47.7058191,-122.6367811
MLS Listing,,Single Family Residential,1525 9th St,Bremerton,WA,98337,325000,3,2.5,Bremerton,1570,3485,2007,35,207,,Active,,,http://www.redfin.com/WA/Bremerton/1525-9th-St-98337/home/2323299,NWMLS,1637201,N,Y,47.5693264,-122.6397824
MLS Listing,,Single Family Residential,4826 Deadwood St,Bremerton,WA,98312,430900,3,2.5,Bremerton,1623,4065,2020,35,265,,Active,,,http://www.redfin.com/WA/Bremerton/4826-Deadwood-ST-98312/home/172953697,NWMLS,1653674,N,Y,47.566182,-122.678619
MLS Listing,,Vacant Land,4 Lot Sulphur Springs Ln,Bremerton,WA,98310,49000,0,,East Bremerton,,7841,,35,,,Active,,,http://www.redfin.com/WA/Bremerton/4-Lot-Sulphur-Springs-Ln-98310/home/172946536,NWMLS,1653138,N,Y,47.596318,-122.654681
MLS Listing,,Single Family Residential,13402 Hidden Cove Ln NE,Bainbridge Island,WA,98110,1098000,4,2.5,Seabold,3602,20909,1968,36,305,,Active,,,http://www.redfin.com/WA/Bainbridge-Island/13402-Hidden-Cove-Ln-NE-98110/home/2160323,NWMLS,1652684,N,Y,47.6898761,-122.5621486
MLS Listing,,Single Family Residential,11255 Ridge Rim Trl SE,Port Orchard,WA,98367,570000,4,3.5,South Kitsap,3147,95832,1989,36,181,,Active,,,http://www.redfin.com/WA/Port-Orchard/11255-Ridge-Rim-Trl-SE-98367/home/2440848,NWMLS,1652944,N,Y,47.4464684,-122.6439986
MLS Listing,,Vacant Land,Old Hansville Rd NE,Kingston,WA,98346,160000,0,,Kingston,,101059,,36,,,Active,,,http://www.redfin.com/WA/Unknown/Old-Hansville-Rd-NE-98346/home/146399648,NWMLS,1652416,N,Y,47.850764,-122.539083
MLS Listing,,Vacant Land,6705 Prospect St NE,Suquamish,WA,98392,65000,0,,Suquamish,,6970,,36,,,Active,,,http://www.redfin.com/WA/Suquamish/6705-NE-Prospect-St-98392/home/161167794,NWMLS,1652222,N,Y,47.7367915,-122.5590667
MLS Listing,,Single Family Residential,29166 Falkner Rd,Poulsbo,WA,98370,439900,2,2,Lofall,1464,93218,1985,36,300,,Active,,,http://www.redfin.com/WA/Poulsbo/29166-Falkner-Rd-NE-98370/home/2213665,NWMLS,1649975,N,Y,47.8259057,-122.6355106
MLS Listing,,Condo/Co-op,180 Harbor Square Lp NE Unit B321,Bainbridge Island,WA,98110,435000,1,1.5,Winslow,869,,2006,37,501,417,Active,,,http://www.redfin.com/WA/Bainbridge-Island/180-Harbor-Square-Loop-NE-98110/unit-B321/home/22902898,NWMLS,1651861,N,Y,47.6252472,-122.5125612
MLS Listing,,Single Family Residential,19609 Laurene Ln NW,Poulsbo,WA,98370,599950,3,2,Poulsbo,1632,82764,1993,37,368,,Active,,,http://www.redfin.com/WA/Poulsbo/19609-Laurene-Ln-NW-98370/home/2219504,NWMLS,1630992,N,Y,47.7407786,-122.6620722
MLS Listing,,Vacant Land,26514 Miller Bay Rd NE,Kingston,WA,98346,200000,0,,Kingston,,591980,,38,,,Active,,,http://www.redfin.com/WA/Kingston/26514-Miller-Bay-Rd-NE-98346/home/146990440,NWMLS,1651778,N,Y,47.80464,-122.5374841
MLS Listing,,Vacant Land,Lot 12 Parkview Dr NE,Bainbridge Island,WA,98110,195000,0,,Fort Ward,,7841,,39,,,Active,,,http://www.redfin.com/WA/Seattle/Lot-12-Parkview-DR-NE-98110/home/172864005,NWMLS,1646937,N,Y,47.578908,-122.519193
MLS Listing,,Vacant Land,Hwy 3,Poulsbo,WA,98370,199500,0,,Lofall,,87120,,40,,,Active,,,http://www.redfin.com/WA/Poulsbo/Unknown-Unknown/home/172843836,NWMLS,1651351,N,Y,47.782115,-122.653726
MLS Listing,,Single Family Residential,9797 NE Murden Cove Dr,Bainbridge Island,WA,98110,998500,3,2.5,Murden Cove,3107,14810,1976,40,321,,Active,,,http://www.redfin.com/WA/Bainbridge-Island/9797-NE-Murden-Cove-Dr-98110/home/2353423,NWMLS,1644776,N,Y,47.6559189,-122.5172848
MLS Listing,,Vacant Land,4745 Roosevelt Blvd,Bremerton,WA,98312,87500,0,,West Hills,,8712,,40,,,Active,,,http://www.redfin.com/WA/Bremerton/4745-Roosevelt-Blvd-98312/home/161610377,NWMLS,1651153,N,Y,47.5513377,-122.6749906
MLS Listing,,Single Family Residential,4785 NW Anderson Hl,Silverdale,WA,98383,399999,3,1.5,Silverdale,1646,37462,1971,40,243,,Active,,,http://www.redfin.com/WA/Silverdale/4785-NW-Anderson-Hill-Rd-98383/home/2226887,NWMLS,1650803,N,Y,47.6542622,-122.7134589
MLS Listing,,Single Family Residential,38746 Benchmark Ave NE,Hansville,WA,98340,798000,3,2.5,Hansville,2322,33106,2020,40,344,17,Active,,,http://www.redfin.com/WA/Hansville/38746-Benchmark-Ave-NE-98340/home/161151586,NWMLS,1645939,N,Y,47.914438,-122.5754791
MLS Listing,,Mobile/Manufactured Home,3371 SE Bielmeier Rd #29,Port Orchard,WA,98367,65000,3,2,Port Orchard,1848,,1984,41,35,,Active,,,http://www.redfin.com/WA/Port-Orchard/3371-SE-Bielmeier-Rd-98367/unit-29/home/171028793,NWMLS,1650773,N,Y,47.4843294,-122.6075334
MLS Listing,,Single Family Residential,,Silverdale,WA,98383,537900,3,2,Silverdale,1767,5625,2020,41,304,,Active,,,http://www.redfin.com/WA/Silverdale/Undisclosed-address-98383/home/172814125,NWMLS,1643681,N,Y,47.648943,-122.676598
MLS Listing,,Single Family Residential,,Silverdale,WA,98383,643900,3,2.25,Silverdale,2129,4500,2020,41,302,35,Active,,,http://www.redfin.com/WA/Silverdale/Undisclosed-address-98383/home/172814023,NWMLS,1643383,N,Y,47.64935,-122.676582
MLS Listing,,Single Family Residential,3490 SW SEDONA Ct,Port Orchard,WA,98367,619999,3,2,South Kitsap,2198,217800,2007,41,282,,Active,,,http://www.redfin.com/WA/Port-Orchard/3490-SW-Sedona-St-98367/home/17460673,NWMLS,1648753,N,Y,47.444952,-122.698928
MLS Listing,,Single Family Residential,25210 Kingston Rd NE,Kingston,WA,98346,1950000,4,3.5,Kingston,3602,42689,1927,42,541,,Active,,,http://www.redfin.com/WA/Kingston/25210-S-Kingston-Rd-NE-98346/home/2367827,NWMLS,1646520,N,Y,47.7908663,-122.5038523
MLS Listing,,Multi-Family (2-4 Unit),2726 Pine Rd NE,Bremerton,WA,98310,399000,4,2,East Bremerton,1560,10454,1983,42,256,,Active,,,http://www.redfin.com/WA/Bremerton/2726-Pine-Rd-NE-98310/home/2410345,NWMLS,1649521,N,Y,47.5889211,-122.6400938
MLS Listing,,Single Family Residential,14555 Olympic View Lp NW,Silverdale,WA,98383,1200000,4,2.25,Olympic View,3050,101059,1990,42,393,,Active,,,http://www.redfin.com/WA/Silverdale/14555-Olympic-View-Loop-Rd-NW-98383/home/2306832,NWMLS,1636767,N,Y,47.695312,-122.742298
MLS Listing,,Single Family Residential,3465 Circle Way NW,Bremerton,WA,98312,469900,3,1.75,Rocky Point,3080,69696,1955,43,153,,Active,,,http://www.redfin.com/WA/Bremerton/3465-Circle-Way-NW-98312/home/2418014,NWMLS,1647220,N,Y,47.6012281,-122.664973
MLS Listing,,Single Family Residential,3840 6th St,Bremerton,WA,98312,360000,3,2.5,West Bremerton,1546,3920,2007,43,233,,Active,,,http://www.redfin.com/WA/Bremerton/3840-6th-St-98312/home/12099646,NWMLS,1648780,N,Y,47.5675291,-122.6657346
MLS Listing,,Single Family Residential,4310 Kitsap Way,Bremerton,WA,98312,990000,4,2.5,Oyster Bay,3379,25265,1960,43,293,,Active,,,http://www.redfin.com/WA/Bremerton/4310-Kitsap-Way-98312/home/2129762,NWMLS,1648637,N,Y,47.56939,-122.672291
MLS Listing,,Vacant Land,Nels Nelson Rd,Silverdale,WA,98383,85000,0,,Ridgetop,,102802,,43,,,Active,,,http://www.redfin.com/WA/Silverdale/Nels-Nelson-Rd-NW-Unknown/home/40632914,NWMLS,1648426,N,Y,47.643287,-122.660757
MLS Listing,,Vacant Land,5405 Bethel Rd SE,Port Orchard,WA,98367,175000,0,,Port Orchard,,425581,,44,,,Active,,,http://www.redfin.com/WA/Port-Orchard/5405-Bethel-Rd-SE-98367/home/2200087,NWMLS,1648279,N,Y,47.498553,-122.628968
MLS Listing,,Vacant Land,Phillips Rd SE,Port Orchard,WA,98366,2000000,0,,South Kitsap,,2387524,,44,,,Active,,,http://www.redfin.com/WA/PORT-ORCHARD/PHILLIPS-RD-SE-98367/home/2174245,NWMLS,1647406,N,Y,47.50722,-122.600008
MLS Listing,,Single Family Residential,10793 NE Bill Point Dr,Bainbridge Island,WA,98110,1555000,5,2.5,Bill Point,3651,13068,1973,44,426,65,Active,,,http://www.redfin.com/WA/Bainbridge-Island/10793-NE-Bill-Point-Dr-98110/home/2345430,NWMLS,1646736,N,Y,47.6119224,-122.5021356
MLS Listing,,Vacant Land,13735 Brownsville Hwy Hwy NE,Poulsbo,WA,98370,115000,0,,Keyport,,110642,,45,,,Active,,,http://www.redfin.com/WA/Poulsbo/13735-Brownsville-Hwy-NE-98370/home/161175137,NWMLS,1648082,N,Y,47.68709,-122.6354589
MLS Listing,,Vacant Land,Olympic View Rd,Silverdale,WA,98383,149950,0,,Olympic View,,121097,,45,,,Active,,,http://www.redfin.com/WA/Silverdale/Olympic-View-Rd-NW-98383/home/144427137,NWMLS,1648048,N,Y,47.676347,-122.723572
MLS Listing,,Single Family Residential,8398 Andrea Ln NW,Silverdale,WA,98383,525000,3,2.5,Newberry Hill,1931,53579,1988,46,272,,Active,,,http://www.redfin.com/WA/Silverdale/8398-Andrea-Ln-NW-98383/home/2232854,NWMLS,1647160,N,Y,47.6386497,-122.7333881
MLS Listing,,Mobile/Manufactured Home,1100 California Ave SE,Port Orchard,WA,98366,199000,3,1.5,Manchester,1152,11326,1974,46,173,,Active,,,http://www.redfin.com/WA/Port-Orchard/1100-California-Ave-SE-98366/home/2407402,NWMLS,1645937,N,Y,47.5386488,-122.5571119
MLS Listing,,Condo/Co-op,781 NE Reeds Meadow Ln,Bremerton,WA,98311,270000,3,2,Central Kitsap,1512,4356,2003,46,179,90,Active,,,http://www.redfin.com/WA/Bremerton/781-NE-Reeds-Meadow-Ln-98311/home/51604928,NWMLS,1647352,N,Y,47.6081794,-122.6411715
MLS Listing,,Single Family Residential,316 S Lafayette Ave,Bremerton,WA,98312,335000,4,1.75,Bremerton,1533,3920,1922,47,219,,Active,,,http://www.redfin.com/WA/Bremerton/316-S-Lafayette-Ave-98312/home/2313478,NWMLS,1647746,N,Y,47.5594701,-122.6563301
MLS Listing,,Vacant Land,Reitan Rd NE,Bainbridge Island,WA,98110,175000,0,,Agate Point,,169013,,47,,,Active,,,http://www.redfin.com/WA/Bainbridge-Island/Reitan-Rd-NE-98110/home/145123288,NWMLS,1645832,N,Y,47.711386,-122.561974
MLS Listing,,Single Family Residential,8625 Landing Ln SE,Port Orchard,WA,98367,900000,4,3.75,Port Orchard,4770,108900,2007,47,189,19,Active,,,http://www.redfin.com/WA/Port-Orchard/8625-Landing-Ln-SE-98367/home/8190611,NWMLS,1641949,N,Y,47.4706908,-122.5372585
MLS Listing,,Single Family Residential,4728 Deadwood St,Bremerton,WA,98312,409900,3,2,Bremerton,1319,4250,2020,47,311,,Active,,,http://www.redfin.com/WA/Bremerton/4728-Deadwood-ST-98312/home/172731182,NWMLS,1647460,N,Y,47.566182,-122.678619
MLS Listing,,Condo/Co-op,360 Knechtel Way NE #307,Bainbridge Island,WA,98110,599000,3,1.75,Winslow,1650,,2004,47,363,814,Active,,,http://www.redfin.com/WA/Bainbridge-Island/360-Knechtel-Way-NE-98110/unit-307/home/12196107,NWMLS,1643615,N,Y,47.6307576,-122.5178168
MLS Listing,,Vacant Land,Clearcreek Rd NW,Silverdale,WA,98383,1200000,0,,Central Kitsap,,174000,,47,,,Active,,,http://www.redfin.com/WA/Silverdale/Clear-Creek-Rd-NW-Unknown/home/144429999,NWMLS,1647208,N,Y,47.680859,-122.691972
MLS Listing,,Vacant Land,12835 Bear lake Dr SW,Port Orchard,WA,98367,50000,0,,Wye Lake,,21780,,48,,,Active,,,http://www.redfin.com/WA/Port-Orchard/12835-Bear-Lake-Dr-SW-98367/home/161083822,NWMLS,1646903,N,Y,47.431523,-122.754163
MLS Listing,,Vacant Land,9 E Hilldale Rd,Port Orchard,WA,98366,590000,0,,Port Orchard,,1742400,,48,,,Active,,,http://www.redfin.com/WA/Unknown/9-E-Hilldale-Rd-98366/home/172722689,NWMLS,1646999,N,Y,47.577715,-122.555221
MLS Listing,,Single Family Residential,241 Perry Ave N,Port Orchard,WA,98366,669000,4,3.25,Annapolis,2560,8276,1995,48,261,,Active,,,http://www.redfin.com/WA/Port-Orchard/241-Perry-Ave-N-98366/home/2338100,NWMLS,1644459,N,Y,47.543446,-122.6239718
MLS Listing,,Single Family Residential,4234 Andasio Lp SE,Port Orchard,WA,98366,464217,4,2.5,South Kitsap,2509,3485,2019,48,185,40,Active,,,http://www.redfin.com/WA/Port-Orchard/4385-Andasio-Loop-SE-98366/home/168708145,NWMLS,1646939,N,Y,47.5095494,-122.6356575
MLS Listing,,Single Family Residential,2882 Intrepid Ct NE,Bainbridge Island,WA,98110,1499000,4,3.5,Port Blakely,3523,20909,2007,48,425,75,Active,,,http://www.redfin.com/WA/Bainbridge-Island/2882-Intrepid-Ct-NE-98110/home/12226628,NWMLS,1646477,N,Y,47.58945,-122.5148795
MLS Listing,,Single Family Residential,6864 Schweitzer Ave SW,Port Orchard,WA,98367,789000,4,3.5,McCormick,3872,216929,2008,49,204,,Active,,,http://www.redfin.com/WA/Port-Orchard/6864-Schweitzer-Pl-SW-98367/home/12331774,NWMLS,1640399,N,Y,47.489277,-122.678234
MLS Listing,,Single Family Residential,127 Duane Ln NW,Bainbridge Island,WA,98110,1585950,4,4,Winslow,3440,6778,2020,49,461,,Active,,,http://www.redfin.com/WA/Seattle/Unknown-98110/home/168708403,NWMLS,1643901,N,Y,47.632761,-122.522516
MLS Listing,,Single Family Residential,134 Duane Ln NW,Bainbridge Island,WA,98110,1545950,4,4,Winslow,3065,8374,2020,49,504,,Active,,,http://www.redfin.com/WA/Seattle/Unknown-98110/home/168708399,NWMLS,1643915,N,Y,47.633342,-122.522737
MLS Listing,,Multi-Family (2-4 Unit),2808 2810 Schley Blvd,Bremerton,WA,98310,374950,6,2,East Bremerton,1728,10019,1942,49,217,,Active,,,http://www.redfin.com/WA/Bremerton/2810-Schley-Blvd-98310/home/2542974,NWMLS,1644370,N,Y,47.587449,-122.618531
MLS Listing,,Multi-Family (2-4 Unit),2812 2816 Schley Blvd,Bremerton,WA,98310,874500,9,7.5,East Bremerton,4056,15682,2006,49,216,,Active,,,http://www.redfin.com/WA/Bremerton/2816-Schley-Blvd-98310/home/172703348,NWMLS,1644375,N,Y,47.587437,-122.618147
MLS Listing,,Single Family Residential,1792 Beans Bight Rd NE,Bainbridge Island,WA,98110,7996000,4,3.25,Bainbridge Island,7063,66647,2003,49,1132,,Active,,,http://www.redfin.com/WA/Bainbridge-Island/1792-Beans-Bight-Rd-NE-98110/home/2201888,NWMLS,1644894,N,Y,47.579171,-122.496586
MLS Listing,,Vacant Land,Clair Rd SW,Port Orchard,WA,98367,350000,0,,McCormick,,1865675,,49,,,Active,,,http://www.redfin.com/WA/Port-Orchard/Clair-Rd-SW-98367/home/142320053,NWMLS,1645347,N,Y,47.516824,-122.701694
MLS Listing,,Townhouse,346 Wyatt Way NE,Bainbridge Island,WA,98110,489000,2,2.25,Winslow,1602,,1998,49,305,495,Active,,,http://www.redfin.com/WA/Bainbridge-Island/346-Wyatt-Way-NE-98110/home/2513431,NWMLS,1645081,N,Y,47.6286656,-122.5175229
MLS Listing,,Single Family Residential,609 11 St,Bremerton,WA,98337,294000,3,1,Bremerton,1224,4356,1918,50,240,,Active,,,http://www.redfin.com/WA/Bremerton/609-11th-St-98337/home/2205291,NWMLS,1635766,N,Y,47.5707752,-122.628551
MLS Listing,,Vacant Land,1 Grover Ln NW,Bremerton,WA,98312,79000,0,,Central Kitsap,,44553,,50,,,Active,,,http://www.redfin.com/WA/Bremerton/1-Grover-Ln-NW-98312/home/167180162,NWMLS,1645038,N,Y,47.581568,-122.718437
MLS Listing,,Single Family Residential,3782 Beach Dr E,Port Orchard,WA,98366,1077000,3,2.5,Port Orchard,2701,19602,1931,51,399,,Active,,,http://www.redfin.com/WA/Port-Orchard/3782-Beach-Dr-E-98366/home/2226115,NWMLS,1644785,N,Y,47.5687445,-122.5850421
MLS Listing,,Vacant Land,SE Mile Hill Dr,Port Orchard,WA,98366,227000,0,,Port Orchard,,164657,,51,,,Active,,,http://www.redfin.com/WA/Port-Orchard/SE-Mile-Hill-Dr-98366/home/144426974,NWMLS,1644872,N,Y,47.533989,-122.59496
MLS Listing,,Vacant Land,9999 Callahan Dr,Bremerton,WA,98310,149900,0,,Bremerton,,24829,,51,,,Active,,,http://www.redfin.com/WA/Bremerton/9999-Callahan-Dr-98310/home/172687651,NWMLS,1644483,N,Y,47.586044,-122.629217
MLS Listing,,Condo/Co-op,778 Madison Ave N,Bainbridge Island,WA,98110,375000,2,2,Bainbridge Island,1084,,1978,51,346,408,Active,,,http://www.redfin.com/WA/Bainbridge-Island/778-Madison-Ave-N-98110/home/2506096,NWMLS,1644403,N,Y,47.6306981,-122.5207965
MLS Listing,,Vacant Land,Banner Rd SE,Olalla,WA,98359,249000,0,,Olalla,,220413,,52,,,Active,,,http://www.redfin.com/WA/Olalla/Banner-Rd-SE-Unknown/home/144440535,NWMLS,1644191,N,Y,47.451074,-122.54971
MLS Listing,,Single Family Residential,922 Ford Ave,Bremerton,WA,98312,415000,4,1.75,Charleston,2702,5663,1968,53,154,,Active,,,http://www.redfin.com/WA/Bremerton/922-Ford-Ave-98312/home/2314131,NWMLS,1643880,N,Y,47.5700959,-122.6568884
MLS Listing,,Mobile/Manufactured Home,2011 cloward Way,Bremerton,WA,98312,175000,2,1.75,Rocky Point,1083,12632,1969,54,162,,Active,,,http://www.redfin.com/WA/Bremerton/2011-Cloward-Way-NW-98312/home/2190974,NWMLS,1641348,N,Y,47.5791764,-122.6682053
MLS Listing,,Vacant Land,961 SE Moose Hill Ct,Port Orchard,WA,98367,134990,0,,Burley,,218671,,54,,,Active,,,http://www.redfin.com/WA/Port-Orchard/961-SE-Moose-Hill-Ct-98367/home/161079225,NWMLS,1643382,N,Y,47.444822,-122.639093
MLS Listing,,Vacant Land,Lot 7 SE Prospect Point Dr,Olalla,WA,98359,120000,0,,Prospect Point,,9583,,56,,,Active,,,http://www.redfin.com/WA/Olalla/Lot-7-SE-Prospect-Point-Dr-98359/home/172664798,NWMLS,1637728,N,Y,47.429815,-122.535176
MLS Listing,,Vacant Land,2145 Belfair Ave NE,Bainbridge Island,WA,98110,170000,0,,Fort Ward,,17424,,56,,,Active,,,http://www.redfin.com/WA/Bainbridge-Island/2145-Belfair-Ave-NE-98110/home/161080518,NWMLS,1639106,N,Y,47.583019,-122.520819
MLS Listing,,Single Family Residential,7926 NE Beachwood Ave,Poulsbo,WA,98370,355000,3,2.25,Miller Bay Estates,1408,8712,1991,56,252,17,Active,,,http://www.redfin.com/WA/Poulsbo/7926-NE-Beachwood-Ave-98370/home/2377080,NWMLS,1633456,N,Y,47.7617241,-122.5437782
MLS Listing,,Single Family Residential,4788 Deadwood St,Bremerton,WA,98312,465900,5,2.5,Bremerton,2175,3400,2020,56,214,,Active,,,http://www.redfin.com/WA/Bremerton/4788-Deadwood-ST-98312/home/172663863,NWMLS,1642076,N,Y,47.567148,-122.677688
MLS Listing,,Single Family Residential,4780 Deadwood St,Bremerton,WA,98312,442900,4,2.5,Bremerton,1843,3400,2020,56,240,,Active,,,http://www.redfin.com/WA/Bremerton/4780-Deadwood-ST-98312/home/172663818,NWMLS,1642060,N,Y,47.566965,-122.677631
MLS Listing,,Single Family Residential,1143 Hewitt Ave,Bremerton,WA,98337,399990,5,2.5,West Bremerton,3169,4792,1932,57,126,,Active,,,http://www.redfin.com/WA/Bremerton/1143-Hewitt-Ave-98337/home/172660128,NWMLS,1630676,N,Y,47.5725013,-122.6434375
MLS Listing,,Vacant Land,"Lot 36,37,38 Bridgeview Pl NE",Kingston,WA,98346,95000,0,,Kingston,,71001,,58,,,Active,,,http://www.redfin.com/WA/Kingston/Lot-36-37-38-Bridgeview-PL-NE-98346/home/172652065,NWMLS,1640019,N,Y,47.878193,-122.569259
MLS Listing,,Mobile/Manufactured Home,9922 Fairview Lake Rd SW,Port Orchard,WA,98367,424950,3,1.75,Wildwood,1404,37026,2020,61,303,,Active,,,http://www.redfin.com/WA/Port-Orchard/9922-Fairview-Lake-Rd-SW-98367/home/2278034,NWMLS,1638428,N,Y,47.4610726,-122.7240095
MLS Listing,,Vacant Land,164 NW Carter Farms Ct,Bremerton,WA,98310,185000,0,,Tracyton,,19166,,61,,,Active,,,http://www.redfin.com/WA/Bremerton/164-NW-Carter-Farms-Ct-98310/home/22100405,NWMLS,1639647,N,Y,47.59362,-122.652135
MLS Listing,,Vacant Land,Lost Hwy W,Seabeck,WA,98380,257500,0,,Hintzville,,223463,,61,,,Active,,,http://www.redfin.com/WA/Unknown/Lost-Hwy-W-98380/home/146401900,NWMLS,1639590,N,Y,47.549812,-122.897871
MLS Listing,,Single Family Residential,6558 Kayak Pl NW,Bremerton,WA,98311,476813,4,2.5,Central Kitsap,2378,3049,2020,62,201,30,Active,,,http://www.redfin.com/WA/Unknown/6558-Stingray-Pl-NW-98311/home/172634612,NWMLS,1639158,N,Y,47.623336,-122.660462
MLS Listing,,Single Family Residential,6574 Kayak Pl NW,Bremerton,WA,98311,476813,4,2.5,Central Kitsap,2378,3049,2020,62,201,30,Active,,,http://www.redfin.com/WA/Unknown/6574-Stingray-Pl-NW-98311/home/172634611,NWMLS,1639165,N,Y,47.623336,-122.660462
MLS Listing,,Single Family Residential,6606 Kayak Pl NW,Bremerton,WA,98311,476813,4,2.5,Central Kitsap,2378,3485,2020,62,201,30,Active,,,http://www.redfin.com/WA/Unknown/6606-Stingray-Pl-NW-98311/home/172634609,NWMLS,1639180,N,Y,47.623336,-122.660462
MLS Listing,,Single Family Residential,6566 Kayak Pl NW,Bremerton,WA,98311,474888,4,2.5,Central Kitsap,2378,3049,2020,62,200,30,Active,,,http://www.redfin.com/WA/Unknown/6566-Stingray-Pl-NW-98311/home/172634605,NWMLS,1639206,N,Y,47.623336,-122.660462
MLS Listing,,Single Family Residential,6590 Kayak Pl NW,Bremerton,WA,98311,474888,4,2.5,Central Kitsap,2378,3049,2020,62,200,30,Active,,,http://www.redfin.com/WA/Unknown/6590-Stingray-Pl-NW-98311/home/172634543,NWMLS,1639214,N,Y,47.623336,-122.660462
MLS Listing,,Single Family Residential,744 Fords Ct NW,Bainbridge Island,WA,98110,739000,3,2.5,Winslow,1709,3049,2020,63,432,40,Active,,,http://www.redfin.com/WA/Bainbridge-Island/744-Ashbury-Ct-NW-98110/home/172614729,NWMLS,1637921,N,Y,47.632011,-122.522942
MLS Listing,,Single Family Residential,5794 NW Londonderry Lp,Bremerton,WA,98312,677500,4,2.5,Newberry Hill,2359,35719,1992,65,287,,Active,,,http://www.redfin.com/WA/Bremerton/5794-Londonderry-Loop-NW-98312/home/2473412,NWMLS,1635794,N,Y,47.62872,-122.725962
MLS Listing,,Single Family Residential,650 SW Spruce Rd,Port Orchard,WA,98367,1499000,4,3.25,Horseshoe Lake,5117,914324,1980,65,293,,Active,,,http://www.redfin.com/WA/Port-Orchard/650-SW-Spruce-Rd-98367/home/25691656,NWMLS,1636791,N,Y,47.4123849,-122.6577617
MLS Listing,,Single Family Residential,1902 SE Silktassel Way,Port Orchard,WA,98366,366950,3,2.5,East Port Orchard,1814,3000,2020,68,202,,Active,,,http://www.redfin.com/WA/Port-Orchard/1902-SE-Silktassel-Way-98366/home/161172976,NWMLS,1636242,N,Y,47.5274403,-122.6269941
MLS Listing,,Single Family Residential,8000 NE Bayberry Ln,Kingston,WA,98346,299900,2,1.5,Kingston,1056,104980,1990,68,284,,Active,,,http://www.redfin.com/WA/Kingston/8000-NE-Bayberry-Ln-98346/home/2268826,NWMLS,1636202,N,Y,47.8835423,-122.540598
MLS Listing,,Single Family Residential,4750 Driftwood St,Bremerton,WA,98312,459900,5,2.5,Bremerton,2175,3400,2020,68,211,,Active,,,http://www.redfin.com/WA/Bremerton/4750-Driftwood-St-98312/home/171409518,NWMLS,1636118,N,Y,47.5675955,-122.6789012
MLS Listing,,Vacant Land,Sound Ridge Dr,Bremerton,WA,98312,750000,0,,West Hills,,108900,,68,,,Active,,,http://www.redfin.com/WA/Bremerton/Sound-Ridge-Dr-98312/home/144428486,NWMLS,1635827,N,Y,47.548476,-122.675534
MLS Listing,,Single Family Residential,1652 NE Halden Glen Ct,Poulsbo,WA,98370,499950,4,2.5,Poulsbo,2496,9583,2017,69,200,,Active,,,http://www.redfin.com/WA/Poulsbo/1652-Halden-Glen-Ct-98370/home/110315197,NWMLS,1635191,N,Y,47.7409826,-122.6261336
MLS Listing,,Vacant Land,Lot B Cedar Heights Ln NE,Bainbridge Island,WA,98110,545000,0,,Sunrise,,47122,,70,,,Active,,,http://www.redfin.com/WA/Bainbridge-Island/Lot-B-Hidden-Heights-Ln-NE-98110/home/172537542,NWMLS,1634636,N,Y,47.690696,-122.507742
MLS Listing,,Single Family Residential,6415 Tracyton Blvd NW,Bremerton,WA,98311,207777,2,1,Tracyton,805,20038,1940,71,258,,Active,,,http://www.redfin.com/WA/Bremerton/6415-Tracyton-Blvd-NW-98311/home/2385796,NWMLS,1634179,N,Y,47.6210364,-122.6663745
MLS Listing,,Single Family Residential,7096 NE Bay Hill Rd,Bainbridge Island,WA,98110,699000,3,1.75,Bainbridge Island,2077,58370,1983,71,337,,Active,,,http://www.redfin.com/WA/Bainbridge-Island/7096-NE-Bay-Hill-Rd-98110/home/2186986,NWMLS,1633759,N,Y,47.668744,-122.555263
MLS Listing,,Vacant Land,State Route 303,Bremerton,WA,98311,1500000,0,,East Bremerton,,347173,,72,,,Active,,,http://www.redfin.com/WA/Bremerton/Unknown-98311/home/148355678,NWMLS,1633213,N,Y,47.631656,-122.630624
MLS Listing,,Vacant Land,Lot 9 South Kingston Rd NE,Kingston,WA,98346,415000,0,,Kingston,,423838,,74,,,Active,,,http://www.redfin.com/WA/Kingston/Lot-9-S-Kingston-Rd-NE-Unknown/home/172521916,NWMLS,1625649,N,Y,47.772568,-122.514174
MLS Listing,,Single Family Residential,20821 Miller Bay Rd NE,Poulsbo,WA,98370,799500,4,2.5,Suquamish,3259,34848,2005,75,245,,Active,,,http://www.redfin.com/WA/Poulsbo/20821-Miller-Bay-Rd-NE-98370/home/2223526,NWMLS,1623905,N,Y,47.7505459,-122.5636669
MLS Listing,,Single Family Residential,11413 Blue Heron Ln NE,Bainbridge Island,WA,98110,1980000,2,2.75,Manzanita,3983,21344,1979,75,497,,Active,,,http://www.redfin.com/WA/Bainbridge-Island/11413-Blue-Heron-Ln-NE-98110/home/2182431,NWMLS,1627512,N,Y,47.6664251,-122.5657468
MLS Listing,,Single Family Residential,10016 NE Ewing St,Bainbridge Island,WA,98110,2300000,3,2.75,Eagle Harbor,2108,7932,2015,75,1091,,Active,,,http://www.redfin.com/WA/Bainbridge-Island/10016-NE-Ewing-St-98110/home/68978469,NWMLS,1632400,N,Y,47.616288,-122.514835
MLS Listing,,Multi-Family (2-4 Unit),140 S Cambrian Ave,Bremerton,WA,98312,395000,4,2,Navy Yard City,2192,6098,1916,75,180,,Active,,,http://www.redfin.com/WA/Bremerton/140-S-Cambrian-Ave-98312/home/2313189,NWMLS,1631589,N,Y,47.562234,-122.6551922
MLS Listing,,Vacant Land,14 Minnesota St E,Port Orchard,WA,98366,1260000,0,,Manchester,,70000,,75,,,Active,,,http://www.redfin.com/WA/Manchester/14-Washington-St-E-98366/home/172518150,NWMLS,1632301,N,Y,47.564085,-122.558179
MLS Listing,,Single Family Residential,151 Blackfish Ct,Bremerton,WA,98310,559950,3,3.5,Tracyton,2057,2614,2020,77,272,100,Active,,,http://www.redfin.com/WA/Bremerton/Unknown-98310/home/168708036,NWMLS,1630148,N,Y,47.594811,-122.651289
MLS Listing,,Single Family Residential,147 Blackfish Ct,Bremerton,WA,98310,555950,3,3.5,Tracyton,2057,2178,2020,77,270,100,Active,,,http://www.redfin.com/WA/Bremerton/Unknown-98310/home/168708037,NWMLS,1630171,N,Y,47.594921,-122.651332
MLS Listing,,Single Family Residential,143 Blackfish Ct,Bremerton,WA,98310,549950,3,3.5,Tracyton,2057,2614,2020,77,267,100,Active,,,http://www.redfin.com/WA/Bremerton/Unknown-98310/home/168708038,NWMLS,1630182,N,Y,47.595037,-122.651367
MLS Listing,,Vacant Land,NW Stavis Bay Rd,Seabeck,WA,98380,115000,0,,Stavis Bay,,285754,,77,,,Active,,,http://www.redfin.com/WA/Seabeck/NW-Stavis-Bay-Rd-98380/home/144431356,NWMLS,1629805,N,Y,47.623294,-122.880792
MLS Listing,,Vacant Land,13727 Brownsville Hwy NE,Poulsbo,WA,98370,92500,0,,Keyport,,110642,,77,,,Active,,,http://www.redfin.com/WA/Poulsbo/13727-Brownsville-Hwy-NE-98370/home/161072972,NWMLS,1629387,N,Y,47.687079,-122.634109
MLS Listing,,Single Family Residential,1221 Ananda Pl NW #15,Bainbridge Island,WA,98110,700000,3,2.5,Winslow,1928,1,2006,82,363,500,Active,,,http://www.redfin.com/WA/Bainbridge-Island/1221-Ananda-Pl-NW-98110/unit-15/home/2543468,NWMLS,1626791,N,Y,47.6352991,-122.5274736
MLS Listing,,Single Family Residential,8650 NE Reserve Way,Bainbridge Island,WA,98110,1575000,4,4.5,Winslow,4069,15642,2020,82,387,,Active,,,http://www.redfin.com/WA/Bainbridge-Island/8650-NE-Reserve-Way-98110/home/145636544,NWMLS,1628077,N,Y,47.631695,-122.535772
MLS Listing,,Single Family Residential,7421 Turko Ln NW,Seabeck,WA,98380,1150000,4,4.5,Seabeck,3858,108900,2006,82,298,,Active,,,http://www.redfin.com/WA/Seabeck/7421-Turko-Ln-NW-98380/home/2271789,NWMLS,1620572,N,Y,47.6322343,-122.8127885
MLS Listing,,Vacant Land,Fern Ln NW,Bremerton,WA,98312,139500,0,,Seabeck,,204296,,83,,,Active,,,http://www.redfin.com/WA/Unknown/Fern-Ln-W-98312/home/160680491,NWMLS,1628308,N,Y,47.557943,-122.841187
MLS Listing,,Single Family Residential,,Bainbridge Island,WA,98110,3957000,4,4.5,Agate Point,8184,109771,2000,83,484,,Active,,,http://www.redfin.com/WA/Bainbridge-Island/Undisclosed-address-98110/home/2273322,NWMLS,1627223,N,Y,47.7151945,-122.5450625
MLS Listing,,Vacant Land,Taylor St E,Port Orchard,WA,98366,110000,0,,Port Orchard,,204732,,83,,,Active,,,http://www.redfin.com/WA/Port-Orchard/Taylor-St-E-98366/home/168046278,NWMLS,1627975,N,Y,47.536334,-122.633965
MLS Listing,,Vacant Land,8867 SE Prospect Point Dr,Olalla,WA,98359,55000,0,,Prospect Point,,23958,,83,,,Active,,,http://www.redfin.com/WA/Olalla/8867-SE-Prospect-Point-Dr-98359/home/146465837,NWMLS,1627896,N,Y,47.429876,-122.536838
MLS Listing,,Vacant Land,Lot X Toe Jam Hill Rd NE,Bainbridge Island,WA,98110,545000,0,,Bainbridge Island,,217800,,85,,,Active,,,http://www.redfin.com/WA/Bainbridge-Island/Lot-X-Toe-Jam-Hill-Rd-NE-98110/home/172390740,NWMLS,1626427,N,Y,47.587617,-122.510229
MLS Listing,,Vacant Land,Parcel #12230140122002,Port Orchard,WA,98366,800000,0,,Port Orchard,,402059,,87,,,Active,,,http://www.redfin.com/WA/Port-Orchard/Parcel-12230140122002-98366/home/172381526,NWMLS,1625555,N,Y,47.496745,-122.620144
MLS Listing,,Single Family Residential,6385 NE Balzow Rd,Suquamish,WA,98392,699500,3,2,Chief Seattle Park,2124,17371,1979,88,329,,Active,,,http://www.redfin.com/WA/Suquamish/6385-NE-Balzow-Rd-98392/home/2277388,NWMLS,1623422,N,Y,47.7170873,-122.564662
MLS Listing,,Condo/Co-op,400 Washington Ave Unit 212A,Bremerton,WA,98337,324950,1,1,West Bremerton,711,,2007,89,457,320,Active,,,http://www.redfin.com/WA/Bremerton/400-Washington-Ave-98337/unit-212A/home/12099760,NWMLS,1621269,N,Y,47.566026,-122.6237495
MLS Listing,,Condo/Co-op,115 Hall Brothers Lp #205,Bainbridge Island,WA,98110,522978,2,1.5,Winslow,1228,,2006,89,426,463,Active,,,http://www.redfin.com/WA/Bainbridge-Island/115-Hall-Brothers-Loop-NW-98110/unit-205/home/11762627,NWMLS,1612139,N,Y,47.6254013,-122.5232593
MLS Listing,,Single Family Residential,2637 W Shipview Ct,Bremerton,WA,98312,335000,3,1,South Kitsap,1263,27007,1938,89,265,,Active,,,http://www.redfin.com/WA/Bremerton/2637-Shipview-Ct-98312/home/2270666,NWMLS,1619336,N,Y,47.535427,-122.68414
MLS Listing,,Single Family Residential,1906 Ginseng Way,Port Orchard,WA,98366,364950,3,2.5,East Port Orchard,1814,3750,2020,89,201,,Active,,,http://www.redfin.com/WA/Port-Orchard/1906-SE-Ginseng-Way-98366/home/161151670,NWMLS,1624986,N,Y,47.5269171,-122.6269331
MLS Listing,,Single Family Residential,1912 Ginseng Way,Port Orchard,WA,98366,364950,3,2.5,East Port Orchard,1814,3750,2020,89,201,,Active,,,http://www.redfin.com/WA/Port-Orchard/1912-Ginseng-WAY-98366/home/172366429,NWMLS,1624989,N,Y,47.527721,-122.626165
MLS Listing,,Vacant Land,9454 SE Southworth Dr,Port Orchard,WA,98366,200000,0,,South Colby,,15682,,90,,,Active,,,http://www.redfin.com/WA/Port-Orchard/9454-SE-Southworth-Dr-98366/home/161181816,NWMLS,1623407,N,Y,47.5221019,-122.526851
MLS Listing,,Single Family Residential,4772 Deadwood St,Bremerton,WA,98312,440900,4,2.5,Bremerton,1843,4250,2020,90,239,,Active,,,http://www.redfin.com/WA/Bremerton/4772-Deadwood-ST-98312/home/172352807,NWMLS,1624402,N,Y,47.566965,-122.677631
MLS Listing,,Single Family Residential,4732 Deadwood St,Bremerton,WA,98312,435900,4,2.5,Bremerton,1843,3400,2020,90,237,,Active,,,http://www.redfin.com/WA/Bremerton/4740-Deadwood-ST-98312/home/172132267,NWMLS,1624383,N,Y,47.566965,-122.677631
MLS Listing,,Townhouse,360 Washington Ave #92,Bremerton,WA,98337,675000,3,2.75,Bremerton,1928,,2007,91,350,929,Active,,,http://www.redfin.com/WA/Bremerton/360-Washington-Ave-98337/unit-92/home/12332954,NWMLS,1621649,N,Y,47.5645842,-122.622898
MLS Listing,,Vacant Land,Illahee Rd,Bremerton,WA,98310,62500,0,,Illahee,,33106,,92,,,Active,,,http://www.redfin.com/WA/Bremerton/Illahee-Rd-NE-98310/home/146404016,NWMLS,1623145,N,Y,47.604817,-122.601174
MLS Listing,,Single Family Residential,16810 Lemolo Shore Dr NE,Poulsbo,WA,98370,1995000,4,3.5,Poulsbo,5320,33541,1979,93,375,,Active,,,http://www.redfin.com/WA/Poulsbo/16810-Lemolo-Shore-Dr-NE-98370/home/2259031,NWMLS,1622197,N,Y,47.7168131,-122.621505
MLS Listing,,Vacant Land,14227 Anatevka SE,Olalla,WA,98359,94900,0,,Olalla,,205168,,93,,,Active,,,http://www.redfin.com/WA/Olalla/14227-Anatevka-Ln-SE-98359/home/160667615,NWMLS,1622630,N,Y,47.4222759,-122.587643
MLS Listing,,Vacant Land,38360 Vista Key Dr NE,Hansville,WA,98340,60000,0,,Driftwood Key,,11326,,94,,,Active,,,http://www.redfin.com/WA/Hansville/38360-Vista-Key-Dr-NE-98340/home/142971080,NWMLS,1622385,N,Y,47.911209,-122.577161
MLS Listing,,Single Family Residential,19900 Nilsen Ln NW,Poulsbo,WA,98370,567800,3,2.5,Finn Hill,2926,28314,1966,96,194,,Active,,,http://www.redfin.com/WA/Poulsbo/19900-Nilsen-Ln-NW-98370/home/2219446,NWMLS,1619499,N,Y,47.7435932,-122.660195
MLS Listing,,Vacant Land,1667 SE Crawford Rd,Port Orchard,WA,98366,67000,0,,South Kitsap,,4792,,97,,,Active,,,http://www.redfin.com/WA/Port-Orchard/1667-SE-Crawford-Rd-98366/home/2137695,NWMLS,1617505,N,Y,47.5114353,-122.6306016
MLS Listing,,Townhouse,233 Ebi Ln NE,Bainbridge Island,WA,98110,988000,2,2.25,Winslow,1830,2178,2020,97,540,130,Active,,,http://www.redfin.com/WA/Bainbridge-Island/Island-Ave-NE-98110/home/168708612,NWMLS,1621189,N,Y,47.626219,-122.512852
MLS Listing,,Vacant Land,19796 NW Stavis Bay Rd,Seabeck,WA,98380,90000,0,,Seabeck,,43124,,98,,,Active,,,http://www.redfin.com/WA/Seabeck/19796-NW-Stavis-Bay-Rd-98380/home/161082230,NWMLS,1619261,N,Y,47.617878,-122.9164649
MLS Listing,,Single Family Residential,2942 NW Costa Vida Way,Poulsbo,WA,98370,1950000,4,3.5,Lofall,4941,41818,2020,99,395,,Active,,,http://www.redfin.com/WA/Poulsbo/2942-NW-Costa-Vida-Way-98370/home/161073496,NWMLS,1619617,N,Y,47.7775614,-122.6908343
MLS Listing,,Single Family Residential,2104 Donnegal Cir SW,Port Orchard,WA,98367,669900,3,2.5,Port Orchard,2539,6098,2020,99,264,60,Active,,,http://www.redfin.com/WA/Port-Orchard/2104-Donnegal-Cir-SW-98367/home/168708373,NWMLS,1619714,N,Y,47.5027786,-122.6809464
MLS Listing,,Single Family Residential,3517 Lancashire Ct SE,Port Orchard,WA,98366,284000,3,1.75,South Kitsap,1532,10019,1984,100,185,,Active,,,http://www.redfin.com/WA/Port-Orchard/3517-Lancashire-Ct-SE-98366/home/2428710,NWMLS,1619025,N,Y,47.5174757,-122.6016753
MLS Listing,,Single Family Residential,2317 NE Denny St,Bremerton,WA,98310,170000,1,0.75,Bremerton,510,2614,1942,100,333,,Active,,,http://www.redfin.com/WA/Bremerton/2317-NE-Denny-St-98310/home/2140450,NWMLS,1619113,N,Y,47.5929699,-122.6123542
MLS Listing,,Mobile/Manufactured Home,3908 NW 18th St,Bremerton,WA,98312,249900,2,2,Rocky Point,1296,53579,1986,103,193,,Active,,,http://www.redfin.com/WA/Bremerton/3908-NW-18th-St-98312/home/2216020,NWMLS,1617429,N,Y,47.5777514,-122.6668924
MLS Listing,,Vacant Land,1858 NE McWilliams Rd,Bremerton,WA,98311,750000,0,,East Bremerton,,184259,,103,,,Active,,,http://www.redfin.com/WA/Bremerton/1858-NE-McWilliams-Rd-98311/home/161077554,NWMLS,1618147,N,Y,47.621831,-122.6247861
MLS Listing,,Vacant Land,26 Dewatto Rd W,Seabeck,WA,98312,298000,0,,Holly,,831125,,103,,,Active,,,http://www.redfin.com/WA/Seabeck/26-Dewatto-Rd-W-98380/home/94560143,NWMLS,1617301,N,Y,47.56421,-122.970995
MLS Listing,,Single Family Residential,3557 NE Lakeness Rd,Poulsbo,WA,98370,500000,4,2.5,Poulsbo,2540,54886,1978,104,197,,Active,,,http://www.redfin.com/WA/Poulsbo/3557-NW-Lakeness-Rd-98370/home/2167737,NWMLS,1615225,N,Y,47.7722208,-122.6970554
MLS Listing,,Single Family Residential,15051 Kay Greseth Ave SE,Olalla,WA,98359,2200000,4,4,Olalla,3912,869893,2005,104,562,,Active,,,http://www.redfin.com/WA/Olalla/15051-Kay-Greseth-Ave-SE-98359/home/172130899,NWMLS,1617438,N,Y,47.4162109,-122.6166982
MLS Listing,,Single Family Residential,2384 Yulan Walk,Bremerton,WA,98310,371000,4,3,Manette,2442,2614,2019,104,152,33,Active,,,http://www.redfin.com/WA/Bremerton/2384-Yulan-Walk-98310/home/145580690,NWMLS,1617180,N,Y,47.5822554,-122.6198418
MLS Listing,,Single Family Residential,3712 SE Lovell St,Port Orchard,WA,98366,399999,3,2.5,Port Orchard,1984,4792,2006,104,202,,Active,,,http://www.redfin.com/WA/Port-Orchard/3712-SE-Lovell-St-98366/home/2515703,NWMLS,1615757,N,Y,47.5343551,-122.6039385
MLS Listing,,Single Family Residential,315 S Lafayette,Bremerton,WA,98312,347900,4,1.75,Charleston,2200,10454,1906,104,158,,Active,,,http://www.redfin.com/WA/Bremerton/315-S-Lafayette-Ave-98312/home/2313416,NWMLS,1617427,N,Y,47.5595377,-122.6567897
MLS Listing,,Single Family Residential,6846 Wing Point Rd NE,Bainbridge Island,WA,98110,2795000,5,3,Wing Point,2147,71874,1910,105,1302,10,Active,,,http://www.redfin.com/WA/Bainbridge-Island/6846-Wing-Point-Rd-NE-98110/home/2343009,NWMLS,1615672,N,Y,47.6260737,-122.4950936
MLS Listing,,Vacant Land,2662 Reid Ave,Bremerton,WA,98310,110000,0,,Sheridan Park,,8712,,105,,,Active,,,http://www.redfin.com/WA/Bremerton/2662-Reid-Ave-98310/home/113872685,NWMLS,1616806,N,Y,47.5846996,-122.6356149
MLS Listing,,Vacant Land,9260 NE White Horse Dr,Kingston,WA,98346,93900,0,,Kingston,,40075,,105,,,Active,,,http://www.redfin.com/WA/Kingston/9260-NE-White-Horse-Dr-98346/home/17509783,NWMLS,1614503,N,Y,47.772098,-122.525281
